{"aerodromes":[{"latLng":{"lat":3.615,"lng":-53.203611},"aerodromeAltitude":740,"icaoCode":"SOOS","frequencies":{"afis":[],"atis":[],"autoinfo":[{"frequency":"123.500","remarks":null}],"tower":[],"ground":[]},"name":"SAUL","mapShortName":"SAUL","magneticVariation":-18.4,"runways":{"mainRunway":{"magneticOrientation":18,"surface":"grass","name":"04/22","lengthInMeters":1142},"runways":[{"magneticOrientation":18,"surface":"grass","name":"04/22","lengthInMeters":1142}]},"vfrPoints":[]},{"latLng":{"lat":49.165,"lng":2.311667},"aerodromeAltitude":149,"icaoCode":"LFPA","frequencies":{"afis":[],"atis":[],"autoinfo":[{"frequency":"119.500","remarks":null}],"tower":[],"ground":[]},"name":"PERSAN BEAUMONT","mapShortName":"PERSAN","magneticVariation":1,"runways":{"mainRunway":{"magneticOrientation":99,"surface":"asphalt","name":"10/28","lengthInMeters":830},"runways":[{"magneticOrientation":51,"surface":"grass","name":"05/23","lengthInMeters":972},{"magneticOrientation":99,"surface":"asphalt","name":"10/28","lengthInMeters":830},{"magneticOrientation":99,"surface":"grass","name":"10R/28L","lengthInMeters":882}]},"vfrPoints":[]},{"latLng":{"lat":48.926944,"lng":2.833889},"aerodromeAltitude":220,"icaoCode":"LFPE","frequencies":{"afis":[],"atis":[{"frequency":"126.725","remarks":"FR seulement/only. TEL 01 60 04 88 75"}],"autoinfo":[],"tower":[{"frequency":"120.150","remarks":null}],"ground":[]},"name":"MEAUX ESBLY","mapShortName":"MEAUX","magneticVariation":1.17,"runways":{"mainRunway":{"magneticOrientation":66.61,"surface":"grass","name":"07L/25R","lengthInMeters":1145},"runways":[{"magneticOrientation":156.62,"surface":"grass","name":"16R/34L","lengthInMeters":1020},{"magneticOrientation":156.62,"surface":"grass","name":"16L/34R","lengthInMeters":1020},{"magneticOrientation":66.61,"surface":"grass","name":"07R/25L","lengthInMeters":1075},{"magneticOrientation":66.61,"surface":"grass","name":"07L/25R","lengthInMeters":1145}]},"vfrPoints":[]},{"latLng":{"lat":49.1025,"lng":0.565556},"aerodromeAltitude":555,"icaoCode":"LFPD","frequencies":{"afis":[],"atis":[],"autoinfo":[{"frequency":"119.225","remarks":null}],"tower":[],"ground":[]},"name":"BERNAY SAINT MARTIN","mapShortName":"BERNAY","magneticVariation":0.46,"runways":{"mainRunway":{"magneticOrientation":97.87,"surface":"grass","name":"10/28","lengthInMeters":1200},"runways":[{"magneticOrientation":97.87,"surface":"grass","name":"10/28","lengthInMeters":1200}]},"vfrPoints":[]},{"latLng":{"lat":49.253611,"lng":2.519167},"aerodromeAltitude":291,"icaoCode":"LFPC","frequencies":{"afis":[],"atis":[],"autoinfo":[{"frequency":"123.500","remarks":null}],"tower":[],"ground":[]},"name":"CREIL","mapShortName":"CREIL","magneticVariation":1.05,"runways":{"mainRunway":{"magneticOrientation":65,"surface":"asphalt","name":"07/25","lengthInMeters":2399},"runways":[{"magneticOrientation":65,"surface":"asphalt","name":"07/25","lengthInMeters":2399}]},"vfrPoints":[{"icaoCode":"LFPC","name":"NE","description":"Creil Ech. Compiegne Creil","latLng":{"lat":49.4022,"lng":2.69778}},{"icaoCode":"LFPC","name":"SE","description":"Creil Inter TGV RN324","latLng":{"lat":49.2231,"lng":2.75056}}]},{"latLng":{"lat":48.969525,"lng":2.441492},"aerodromeAltitude":220,"icaoCode":"LFPB","frequencies":{"afis":[],"atis":[{"frequency":"120.000","remarks":"Diffusion des paramètres de DEP et ARR."}],"autoinfo":[],"tower":[{"frequency":"118.925","remarks":"FREQ pour TKOF et APCH finale toute condition MTO."},{"frequency":"118.400","remarks":null}],"ground":[{"frequency":"121.900","remarks":null}]},"name":"PARIS LE BOURGET","mapShortName":"P. LE BOURGET","magneticVariation":1.04,"runways":{"mainRunway":{"magneticOrientation":68,"surface":"asphalt","name":"07/25","lengthInMeters":2991},"runways":[{"magneticOrientation":68,"surface":"asphalt","name":"07/25","lengthInMeters":2991},{"magneticOrientation":85,"surface":"asphalt","name":"09/27","lengthInMeters":1847},{"magneticOrientation":25,"surface":"asphalt","name":"03/21","lengthInMeters":2664}]},"vfrPoints":[{"icaoCode":"LFPB","name":"E1","description":"Le Bourget Ch. Eau Montfermeil","latLng":{"lat":48.8986,"lng":2.55722}},{"icaoCode":"LFPB","name":"E2","description":"Le Bourget Inter A3 E15","latLng":{"lat":48.9322,"lng":2.48083}},{"icaoCode":"LFPB","name":"W2","description":"Le Bourget Jonction N1 N16","latLng":{"lat":48.9742,"lng":2.36583}},{"icaoCode":"LFPB","name":"W1","description":"Le Bourget Patte d'Oie Herblay","latLng":{"lat":49.0014,"lng":2.185}}]},{"latLng":{"lat":48.381111,"lng":2.073889},"aerodromeAltitude":494,"icaoCode":"LFOX","frequencies":{"afis":[],"atis":[{"frequency":"129.900","remarks":"ATIS/V-FR-Tel : 01 60 80 96 86"}],"autoinfo":[],"tower":[{"frequency":"119.050","remarks":null}],"ground":[{"frequency":"121.850","remarks":null}]},"name":"ETAMPES MONDESIR","mapShortName":"ETAMPES","magneticVariation":0.97,"runways":{"mainRunway":{"magneticOrientation":56.66,"surface":"asphalt","name":"06/24","lengthInMeters":700},"runways":[{"magneticOrientation":56.66,"surface":"asphalt","name":"06/24","lengthInMeters":700},{"magneticOrientation":56.64,"surface":"grass","name":"06L/24R","lengthInMeters":1230}]},"vfrPoints":[]},{"latLng":{"lat":49.816944,"lng":3.206667},"aerodromeAltitude":325,"icaoCode":"LFOW","frequencies":{"afis":[],"atis":[],"autoinfo":[{"frequency":"123.500","remarks":null}],"tower":[],"ground":[]},"name":"SAINT QUENTIN ROUPY","mapShortName":"ST QUENTIN","magneticVariation":1.24,"runways":{"mainRunway":{"magneticOrientation":40.63,"surface":"grass","name":"04/22","lengthInMeters":670},"runways":[{"magneticOrientation":40.63,"surface":"grass","name":"04/22","lengthInMeters":670},{"magneticOrientation":137.51,"surface":"grass","name":"14/32","lengthInMeters":620}]},"vfrPoints":[]},{"latLng":{"lat":48.03225,"lng":-0.742781},"aerodromeAltitude":330,"icaoCode":"LFOV","frequencies":{"afis":[{"frequency":"120.805","remarks":"LAVAL Information (EN) sur PPR 24 HR par E-mail : contact@aeroport-laval.fr ou le dernier jour ouvrable avant le vol."}],"atis":[],"autoinfo":[],"tower":[],"ground":[]},"name":"LAVAL ENTRAMMES","mapShortName":"LAVAL","magneticVariation":0.12,"runways":{"mainRunway":{"magneticOrientation":142.18,"surface":"asphalt","name":"14/32","lengthInMeters":1662},"runways":[{"magneticOrientation":142.18,"surface":"grass","name":"14L/32R","lengthInMeters":1440},{"magneticOrientation":142.18,"surface":"asphalt","name":"14/32","lengthInMeters":1662}]},"vfrPoints":[]},{"latLng":{"lat":47.081906,"lng":-0.877217},"aerodromeAltitude":443,"icaoCode":"LFOU","frequencies":{"afis":[{"frequency":"120.405","remarks":"Exploitant: Agglomération du Choletais."}],"atis":[],"autoinfo":[],"tower":[],"ground":[]},"name":"CHOLET LE PONTREAU","mapShortName":"CHOLET","magneticVariation":0.15,"runways":{"mainRunway":{"magneticOrientation":25.02,"surface":"asphalt","name":"03/21","lengthInMeters":1380},"runways":[{"magneticOrientation":25.02,"surface":"asphalt","name":"03/21","lengthInMeters":1380},{"magneticOrientation":25.04,"surface":"grass","name":"03R/21L","lengthInMeters":1030}]},"vfrPoints":[]},{"latLng":{"lat":47.897617,"lng":2.164208},"aerodromeAltitude":397,"icaoCode":"LFOZ","frequencies":{"afis":[{"frequency":"122.400","remarks":null}],"atis":[],"autoinfo":[],"tower":[],"ground":[]},"name":"ORLEANS SAINT DENIS DE L'HOTEL","mapShortName":"O. ST-DENIS","magneticVariation":1.02,"runways":{"mainRunway":{"magneticOrientation":53.35,"surface":"asphalt","name":"05/23","lengthInMeters":1600},"runways":[{"magneticOrientation":53.35,"surface":"asphalt","name":"05/23","lengthInMeters":1600},{"magneticOrientation":53.35,"surface":"grass","name":"05R/23L","lengthInMeters":1252}]},"vfrPoints":[]},{"latLng":{"lat":49.543889,"lng":0.359722},"aerodromeAltitude":423,"icaoCode":"LFOY","frequencies":{"afis":[],"atis":[],"autoinfo":[{"frequency":"123.500","remarks":null}],"tower":[],"ground":[]},"name":"LE HAVRE SAINT ROMAIN","mapShortName":"L. H. ST-ROMAIN","magneticVariation":0.36,"runways":{"mainRunway":{"magneticOrientation":11.55,"surface":"grass","name":"01/19","lengthInMeters":890},"runways":[{"magneticOrientation":11.55,"surface":"grass","name":"01/19","lengthInMeters":890},{"magneticOrientation":52.9,"surface":"grass","name":"05/23","lengthInMeters":840}]},"vfrPoints":[]},{"latLng":{"lat":49.109167,"lng":2.736944},"aerodromeAltitude":387,"icaoCode":"LFPP","frequencies":{"afis":[],"atis":[],"autoinfo":[{"frequency":"120.400","remarks":null}],"tower":[],"ground":[]},"name":"LE PLESSIS BELLEVILLE","mapShortName":"LE PLESSIS","magneticVariation":1.13,"runways":{"mainRunway":{"magneticOrientation":66.47,"surface":"asphalt","name":"07/25","lengthInMeters":698},"runways":[{"magneticOrientation":66.47,"surface":"asphalt","name":"07/25","lengthInMeters":698},{"magneticOrientation":65.69,"surface":"grass","name":"07R/25L","lengthInMeters":830}]},"vfrPoints":[]},{"latLng":{"lat":48.706111,"lng":2.902778},"aerodromeAltitude":371,"icaoCode":"LFPQ","frequencies":{"afis":[],"atis":[],"autoinfo":[{"frequency":"120.225","remarks":null}],"tower":[],"ground":[]},"name":"FONTENAY TRESIGNY","mapShortName":"FONTENAY TRESIGNY","magneticVariation":1.2,"runways":{"mainRunway":{"magneticOrientation":119.42,"surface":"asphalt","name":"12L/30R","lengthInMeters":700},"runways":[{"magneticOrientation":119.42,"surface":"asphalt","name":"12L/30R","lengthInMeters":700},{"magneticOrientation":119.42,"surface":"grass","name":"12R/30L","lengthInMeters":720}]},"vfrPoints":[]},{"latLng":{"lat":48.749756,"lng":2.111178},"aerodromeAltitude":538,"icaoCode":"LFPN","frequencies":{"afis":[],"atis":[{"frequency":"127.475","remarks":"TEL : 01 39 56 54 70"}],"autoinfo":[],"tower":[{"frequency":"119.300","remarks":"COS 25 NM/FL 030."},{"frequency":"120.750","remarks":null}],"ground":[{"frequency":"122.125","remarks":null}]},"name":"TOUSSUS LE NOBLE","mapShortName":"TOUSSUS","magneticVariation":0.96,"runways":{"mainRunway":{"magneticOrientation":71.23,"surface":"asphalt","name":"07L/25R","lengthInMeters":1100},"runways":[{"magneticOrientation":71.23,"surface":"asphalt","name":"07R/25L","lengthInMeters":1050},{"magneticOrientation":71.23,"surface":"asphalt","name":"07L/25R","lengthInMeters":1100}]},"vfrPoints":[{"icaoCode":"LFPN","name":"S","description":"Sierra de Toussus","latLng":{"lat":48.7097,"lng":2.11028}},{"icaoCode":"LFPN","name":"NH","description":"Toussus NH (800 m Nord)","latLng":{"lat":48.7592,"lng":2.1}}]},{"latLng":{"lat":48.723281,"lng":2.379578},"aerodromeAltitude":291,"icaoCode":"LFPO","frequencies":{"afis":[],"atis":[{"frequency":"131.355","remarks":"Diffusion des paramètres de DEP et ARR (EN)."},{"frequency":"126.505","remarks":"Diffusion des paramètres de DEP et ARR (FR)."}],"autoinfo":[{"frequency":"131.510","remarks":"FREQ Zone Industrielle Nord. FR seulement/only."}],"tower":[{"frequency":"135.000","remarks":"FREQ \" FIRE \"."},{"frequency":"118.700","remarks":null},{"frequency":"120.500","remarks":"FREQ de secours Prévol."}],"ground":[{"frequency":"121.705","remarks":null},{"frequency":"121.815","remarks":null}]},"name":"PARIS ORLY","mapShortName":"P. ORLY","magneticVariation":1.04,"runways":{"mainRunway":{"magneticOrientation":74,"surface":"asphalt","name":"07/25","lengthInMeters":3320},"runways":[{"magneticOrientation":74,"surface":"asphalt","name":"07/25","lengthInMeters":3320},{"magneticOrientation":62,"surface":"asphalt","name":"06/24","lengthInMeters":3650},{"magneticOrientation":18,"surface":"asphalt","name":"02/20","lengthInMeters":2400}]},"vfrPoints":[{"icaoCode":"LFPO","name":"BCR","description":"Paris Orly Brie Comte Robert","latLng":{"lat":48.7,"lng":2.60306}},{"icaoCode":"LFPO","name":"VAI","description":"Paris Orly Vaires","latLng":{"lat":48.875,"lng":2.64306}}]},{"latLng":{"lat":49.096628,"lng":2.040722},"aerodromeAltitude":325,"icaoCode":"LFPT","frequencies":{"afis":[],"atis":[{"frequency":"124.125","remarks":"TEL : 01 30 30 52 08"}],"autoinfo":[],"tower":[{"frequency":"121.200","remarks":"25NM/FL40."}],"ground":[]},"name":"PONTOISE CORMEILLES EN VEXIN","mapShortName":"PONTOISE","magneticVariation":0.92,"runways":{"mainRunway":{"magneticOrientation":45,"surface":"asphalt","name":"05/23","lengthInMeters":1689},"runways":[{"magneticOrientation":45,"surface":"asphalt","name":"05/23","lengthInMeters":1689},{"magneticOrientation":118.12,"surface":"asphalt","name":"12/30","lengthInMeters":1650}]},"vfrPoints":[{"icaoCode":"LFPT","name":"NW","description":"Pontoise Ch. Eau Bercagny","latLng":{"lat":49.1475,"lng":1.89917}},{"icaoCode":"LFPT","name":"E","description":"Pontoise Ennery","latLng":{"lat":49.0783,"lng":2.10722}},{"icaoCode":"LFPT","name":"SW","description":"Pontoise Sud Res. Gargenville","latLng":{"lat":48.9706,"lng":1.79611}}]},{"latLng":{"lat":48.340833,"lng":2.797778},"aerodromeAltitude":253,"icaoCode":"LFPU","frequencies":{"afis":[],"atis":[],"autoinfo":[{"frequency":"123.500","remarks":null}],"tower":[],"ground":[]},"name":"MORET EPISY","mapShortName":"MORET","magneticVariation":1.18,"runways":{"mainRunway":{"magneticOrientation":57.2,"surface":"grass","name":"06/24","lengthInMeters":825},"runways":[{"magneticOrientation":57.2,"surface":"grass","name":"06/24","lengthInMeters":825}]},"vfrPoints":[]},{"latLng":{"lat":44.179444,"lng":4.918889},"aerodromeAltitude":305,"icaoCode":"LFPR","frequencies":{"afis":[],"atis":[],"autoinfo":[{"frequency":"123.500","remarks":null}],"tower":[],"ground":[]},"name":"ORANGE PLAN DE DIEU","mapShortName":"O. PLAN DE DIEU","magneticVariation":1.86,"runways":{"mainRunway":{"magneticOrientation":161,"surface":"asphalt","name":"16/34","lengthInMeters":800},"runways":[{"magneticOrientation":161,"surface":"asphalt","name":"16/34","lengthInMeters":800},{"magneticOrientation":169,"surface":"grass","name":"17R/35L","lengthInMeters":650}]},"vfrPoints":[]},{"latLng":{"lat":48.896667,"lng":2.606111},"aerodromeAltitude":208,"icaoCode":"LFPH","frequencies":{"afis":[],"atis":[],"autoinfo":[{"frequency":"123.925","remarks":null}],"tower":[],"ground":[]},"name":"CHELLES LE PIN","mapShortName":"CHELLES","magneticVariation":1.1,"runways":{"mainRunway":{"magneticOrientation":39.23,"surface":"grass","name":"04/22","lengthInMeters":600},"runways":[{"magneticOrientation":39.23,"surface":"grass","name":"04/22","lengthInMeters":600},{"magneticOrientation":109.23,"surface":"grass","name":"11/29","lengthInMeters":650}]},"vfrPoints":[]},{"latLng":{"lat":48.843611,"lng":1.908889},"aerodromeAltitude":371,"icaoCode":"LFPF","frequencies":{"afis":[],"atis":[],"autoinfo":[{"frequency":"120.425","remarks":null}],"tower":[],"ground":[]},"name":"BEYNES THIVERVAL","mapShortName":"BEYNES","magneticVariation":0.89,"runways":{"mainRunway":{"magneticOrientation":115.49,"surface":"grass","name":"12/30","lengthInMeters":1000},"runways":[{"magneticOrientation":115.49,"surface":"grass","name":"12/30","lengthInMeters":1000}]},"vfrPoints":[]},{"latLng":{"lat":49.009747,"lng":2.547819},"aerodromeAltitude":392,"icaoCode":"LFPG","frequencies":{"afis":[],"atis":[{"frequency":"127.130","remarks":"Diffusion des paramètres de DEP et ARR (EN)/ARR-DEP parameters broadcasting(EN).#Canal 8.33"},{"frequency":"128.230","remarks":"Diffusion des paramètres de DEP et ARR (FR)/ARR-DEP parameters broadcasting.\n#Canal 8.33"}],"autoinfo":[],"tower":[{"frequency":"118.655","remarks":"Canal 8.33"},{"frequency":"131.605","remarks":"Au profit des postes de stationnement I.#\nIn favour of parking stands I.\n#Canal 8.33"},{"frequency":"120.900","remarks":"Canal 25"},{"frequency":"119.250","remarks":"Canal 25"},{"frequency":"120.655","remarks":"Canal 8.33"},{"frequency":"125.330","remarks":"Canal 8.33"},{"frequency":"123.605","remarks":"Canal 8.33"},{"frequency":"119.630","remarks":"Fréquence feu. Fire frequency. Canal 8.33"}],"ground":[{"frequency":"121.780","remarks":"Canal 8.33"},{"frequency":"121.980","remarks":"Canal 8.33"},{"frequency":"121.810","remarks":"Canal 8.33"},{"frequency":"121.610","remarks":"Canal 8.33"}]},"name":"PARIS CHARLES DE GAULLE","mapShortName":"P. CH. DE-GAULLE","magneticVariation":1.08,"runways":{"mainRunway":{"magneticOrientation":85,"surface":"asphalt","name":"08L/26R","lengthInMeters":4142},"runways":[{"magneticOrientation":85,"surface":"asphalt","name":"09R/27L","lengthInMeters":4200},{"magneticOrientation":85,"surface":"asphalt","name":"08L/26R","lengthInMeters":4142},{"magneticOrientation":85,"surface":"asphalt","name":"09L/27R","lengthInMeters":2700},{"magneticOrientation":85,"surface":"asphalt","name":"08R/26L","lengthInMeters":2700}]},"vfrPoints":[{"icaoCode":"LFPG","name":"RH2","description":"De Gaulle Hel. Est Mitry le Neuf","latLng":{"lat":48.9558,"lng":2.61528}},{"icaoCode":"LFPG","name":"N","description":"De Gaulle Hel. Inter A1 / VF","latLng":{"lat":49.0497,"lng":2.5475}},{"icaoCode":"LFPG","name":"RH1","description":"De Gaulle Hel. Peage A1","latLng":{"lat":49.0867,"lng":2.55167}},{"icaoCode":"LFPG","name":"S","description":"De Gaulle Hel. Rd Point","latLng":{"lat":48.9711,"lng":2.55167}},{"icaoCode":"LFPG","name":"BD19","description":"De Gaulle Hel. Sud TWY B, Tr BD19","latLng":{"lat":49.0181,"lng":2.56111}},{"icaoCode":"LFPG","name":"EM","description":"De Gaulle Hel. Vertic. Aire essai moteur","latLng":{"lat":49.0161,"lng":2.51861}},{"icaoCode":"LFPG","name":"UN","description":"De Gaulle Hel. Vertic. Bassin retention, Nd TWY U","latLng":{"lat":49.0003,"lng":2.55167}},{"icaoCode":"LFPG","name":"P1","description":"De Gaulle Hel. Vertic. Sud T2, vert. TWY P1","latLng":{"lat":49.0025,"lng":2.6025}}]},{"latLng":{"lat":48.821944,"lng":2.622778},"aerodromeAltitude":359,"icaoCode":"LFPL","frequencies":{"afis":[],"atis":[{"frequency":"125.025","remarks":"ATIS/V-TEL 01 60 17 97 94"}],"autoinfo":[],"tower":[{"frequency":"118.600","remarks":null}],"ground":[{"frequency":"122.125","remarks":null}]},"name":"LOGNES EMERAINVILLE","mapShortName":"LOGNES","magneticVariation":1.11,"runways":{"mainRunway":{"magneticOrientation":81.63,"surface":"asphalt","name":"08/26","lengthInMeters":700},"runways":[{"magneticOrientation":81.63,"surface":"asphalt","name":"08/26","lengthInMeters":700},{"magneticOrientation":82.35,"surface":"grass","name":"08R/26L","lengthInMeters":1100}]},"vfrPoints":[{"icaoCode":"LFPL","name":"E","description":"Lognes tr. N. Ferrieres","latLng":{"lat":48.83,"lng":2.70611}}]},{"latLng":{"lat":48.605283,"lng":2.670781},"aerodromeAltitude":304,"icaoCode":"LFPM","frequencies":{"afis":[],"atis":[{"frequency":"128.175","remarks":null}],"autoinfo":[],"tower":[{"frequency":"121.100","remarks":null}],"ground":[]},"name":"MELUN VILLAROCHE","mapShortName":"MELUN","magneticVariation":1.13,"runways":{"mainRunway":{"magneticOrientation":103.49,"surface":"asphalt","name":"10/28","lengthInMeters":1972},"runways":[{"magneticOrientation":103.49,"surface":"asphalt","name":"10/28","lengthInMeters":1972},{"magneticOrientation":12.75,"surface":"asphalt","name":"01/19","lengthInMeters":1300}]},"vfrPoints":[{"icaoCode":"LFPM","name":"B","description":"Melun A6 RN191 + VF","latLng":{"lat":48.5714,"lng":2.46889}},{"icaoCode":"LFPM","name":"SM","description":"Melun Chartrettes Nd Seine","latLng":{"lat":48.4867,"lng":2.70194}},{"icaoCode":"LFPM","name":"N","description":"Melun TGV Triangle","latLng":{"lat":48.6942,"lng":2.72056}}]},{"latLng":{"lat":48.8375,"lng":3.014444},"aerodromeAltitude":470,"icaoCode":"LFPK","frequencies":{"afis":[],"atis":[],"autoinfo":[{"frequency":"122.200","remarks":null}],"tower":[],"ground":[]},"name":"COULOMMIERS VOISINS","mapShortName":"COULOMMIERS","magneticVariation":1.22,"runways":{"mainRunway":{"magneticOrientation":90.55,"surface":"asphalt","name":"09C/27C","lengthInMeters":1590},"runways":[{"magneticOrientation":90.61,"surface":"grass","name":"09R/27L","lengthInMeters":660},{"magneticOrientation":90.55,"surface":"asphalt","name":"09C/27C","lengthInMeters":1590},{"magneticOrientation":90.65,"surface":"grass","name":"09L/27R","lengthInMeters":650}]},"vfrPoints":[]},{"latLng":{"lat":49.454422,"lng":2.112814},"aerodromeAltitude":359,"icaoCode":"LFOB","frequencies":{"afis":[],"atis":[{"frequency":"118.380","remarks":"Canal 8.33.# TEL : 03 44 84 69 41"}],"autoinfo":[],"tower":[{"frequency":"121.400","remarks":null},{"frequency":"123.985","remarks":"#Canal 8.33"}],"ground":[]},"name":"BEAUVAIS TILLE","mapShortName":"BEAUVAIS","magneticVariation":0.92,"runways":{"mainRunway":{"magneticOrientation":123.66,"surface":"asphalt","name":"12/30","lengthInMeters":2429},"runways":[{"magneticOrientation":41.47,"surface":"asphalt","name":"04/22","lengthInMeters":708},{"magneticOrientation":123.66,"surface":"asphalt","name":"12/30","lengthInMeters":2429}]},"vfrPoints":[{"icaoCode":"LFOB","name":"SW","description":"Beauvais A16 (Tr W Relais Bois de la Molle)","latLng":{"lat":49.3239,"lng":2.08}},{"icaoCode":"LFOB","name":"N","description":"Beauvais A16/N1 (Bois St-Martin)","latLng":{"lat":49.5236,"lng":2.1875}},{"icaoCode":"LFOB","name":"S","description":"Beauvais Allone (Ech A16)","latLng":{"lat":49.3978,"lng":2.12889}},{"icaoCode":"LFOB","name":"WB","description":"Beauvais Goincourt","latLng":{"lat":49.4278,"lng":2.03972}},{"icaoCode":"LFOB","name":"SE","description":"Beauvais Noailles (N1/D2/D44)","latLng":{"lat":49.3292,"lng":2.2}},{"icaoCode":"LFOB","name":"W","description":"Beauvais Pont N31","latLng":{"lat":49.4194,"lng":1.9375}}]},{"latLng":{"lat":47.056944,"lng":2.638889},"aerodromeAltitude":578,"icaoCode":"LFOA","frequencies":{"afis":[],"atis":[],"autoinfo":[],"tower":[{"frequency":"122.100","remarks":"NIL"},{"frequency":"257.800","remarks":"Combiné/combined to TWR - Zone OTAN"},{"frequency":"398.550","remarks":"Particulière/particular to TWR - 50 NM - Réservée MIL"},{"frequency":"142.225","remarks":"Particulière/particular to TWR - Réservée MIL"}],"ground":[]},"name":"AVORD","mapShortName":"AVORD","magneticVariation":1.19,"runways":{"mainRunway":{"magneticOrientation":60,"surface":"asphalt","name":"06/24","lengthInMeters":3503},"runways":[{"magneticOrientation":60,"surface":"asphalt","name":"06/24","lengthInMeters":3503}]},"vfrPoints":[{"icaoCode":"LFOA","name":"BOU","description":"Avord Bourges","latLng":{"lat":47.0658,"lng":2.36167}},{"icaoCode":"LFOA","name":"NE","description":"Avord Chaumoux Marcilly","latLng":{"lat":47.1272,"lng":2.77917}},{"icaoCode":"LFOA","name":"DUN","description":"Avord Dun sur Auron","latLng":{"lat":46.8867,"lng":2.57111}},{"icaoCode":"LFOA","name":"W","description":"Avord Fussy","latLng":{"lat":47.1494,"lng":2.42889}},{"icaoCode":"LFOA","name":"S","description":"Avord La Chaussee","latLng":{"lat":46.9242,"lng":2.58639}},{"icaoCode":"LFOA","name":"N","description":"Avord Les Aix d'Anguillon","latLng":{"lat":47.1969,"lng":2.57389}},{"icaoCode":"LFOA","name":"SE","description":"Avord Nerondes","latLng":{"lat":46.99,"lng":2.82944}},{"icaoCode":"LFOA","name":"W1","description":"Avord Sainte Solange","latLng":{"lat":47.1436,"lng":2.56194}},{"icaoCode":"LFOA","name":"BS","description":"Avord SE Bourges","latLng":{"lat":47.06,"lng":2.42722}},{"icaoCode":"LFOA","name":"BN","description":"Avord St Germain du Puy","latLng":{"lat":47.0981,"lng":2.4675}}]},{"latLng":{"lat":47.256731,"lng":-0.113553},"aerodromeAltitude":269,"icaoCode":"LFOD","frequencies":{"afis":[],"atis":[],"autoinfo":[{"frequency":"120.605","remarks":null}],"tower":[],"ground":[]},"name":"SAUMUR SAINT FLORENT","mapShortName":"SAUMUR","magneticVariation":0.37,"runways":{"mainRunway":{"magneticOrientation":95.12,"surface":"asphalt","name":"10/28","lengthInMeters":1450},"runways":[{"magneticOrientation":95.12,"surface":"asphalt","name":"10/28","lengthInMeters":1450}]},"vfrPoints":[]},{"latLng":{"lat":48.057875,"lng":1.379442},"aerodromeAltitude":432,"icaoCode":"LFOC","frequencies":{"afis":[],"atis":[],"autoinfo":[],"tower":[{"frequency":"243.000","remarks":"FREQ veillée"},{"frequency":"257.800","remarks":"FREQ veillée"},{"frequency":"370.775","remarks":"Particulière TWR"},{"frequency":"121.750","remarks":"FREQ veillée"},{"frequency":"125.625","remarks":"FREQ veillée"}],"ground":[]},"name":"CHATEAUDUN","mapShortName":"CHATEAUDUN","magneticVariation":0.77,"runways":{"mainRunway":{"magneticOrientation":98.01,"surface":"asphalt","name":"10/28","lengthInMeters":2302},"runways":[{"magneticOrientation":98.01,"surface":"asphalt","name":"10/28","lengthInMeters":2302}]},"vfrPoints":[{"icaoCode":"LFOC","name":"SW","description":"Chateaudun Cloyes Plan d'eau","latLng":{"lat":48.0103,"lng":1.24361}},{"icaoCode":"LFOC","name":"NA","description":"Chateaudun Flacey - Inter N10/D110","latLng":{"lat":48.1467,"lng":1.35056}},{"icaoCode":"LFOC","name":"SA","description":"Chateaudun La Ferte Villeneuil","latLng":{"lat":47.9803,"lng":1.3375}},{"icaoCode":"LFOC","name":"NW","description":"Chateaudun Logron Cimet.","latLng":{"lat":48.1478,"lng":1.26722}},{"icaoCode":"LFOC","name":"NE","description":"Chateaudun Varize (Ch. D'eau)","latLng":{"lat":48.0992,"lng":1.51583}},{"icaoCode":"LFOC","name":"SE","description":"Chateaudun Verdes (Silo)","latLng":{"lat":47.9625,"lng":1.42361}}]},{"latLng":{"lat":44.083472,"lng":4.393833},"aerodromeAltitude":884,"icaoCode":"LFNU","frequencies":{"afis":[],"atis":[],"autoinfo":[{"frequency":"123.500","remarks":null}],"tower":[],"ground":[]},"name":"UZES","mapShortName":"UZES","magneticVariation":1.73,"runways":{"mainRunway":{"magneticOrientation":175.69,"surface":"grass","name":"17/35","lengthInMeters":1060},"runways":[{"magneticOrientation":175.69,"surface":"grass","name":"17/35","lengthInMeters":1060}]},"vfrPoints":[]},{"latLng":{"lat":43.996111,"lng":4.754444},"aerodromeAltitude":146,"icaoCode":"LFNT","frequencies":{"afis":[],"atis":[],"autoinfo":[{"frequency":"123.350","remarks":null}],"tower":[],"ground":[]},"name":"AVIGNON PUJAUT","mapShortName":"A. PUJAUT","magneticVariation":1.82,"runways":{"mainRunway":{"magneticOrientation":165.32,"surface":"grass","name":"16R/34L","lengthInMeters":1350},"runways":[{"magneticOrientation":165.32,"surface":"grass","name":"16L/34R","lengthInMeters":650},{"magneticOrientation":165.32,"surface":"grass","name":"16R/34L","lengthInMeters":1350},{"magneticOrientation":123.25,"surface":"grass","name":"12/30","lengthInMeters":1165}]},"vfrPoints":[]},{"latLng":{"lat":42.910278,"lng":2.054722},"aerodromeAltitude":1610,"icaoCode":"LFNW","frequencies":{"afis":[],"atis":[],"autoinfo":[{"frequency":"123.500","remarks":null}],"tower":[],"ground":[]},"name":"PUIVERT","mapShortName":"PUIVERT","magneticVariation":1.16,"runways":{"mainRunway":{"magneticOrientation":138.63,"surface":"grass","name":"14/32","lengthInMeters":720},"runways":[{"magneticOrientation":138.63,"surface":"grass","name":"14/32","lengthInMeters":720}]},"vfrPoints":[]},{"latLng":{"lat":44.335833,"lng":4.906944},"aerodromeAltitude":472,"icaoCode":"LFNV","frequencies":{"afis":[],"atis":[],"autoinfo":[{"frequency":"123.500","remarks":null}],"tower":[],"ground":[]},"name":"VALREAS VISAN","mapShortName":"VALREAS","magneticVariation":1.85,"runways":{"mainRunway":{"magneticOrientation":19.58,"surface":"grass","name":"02/20","lengthInMeters":1020},"runways":[{"magneticOrientation":19.58,"surface":"grass","name":"02/20","lengthInMeters":1020}]},"vfrPoints":[]},{"latLng":{"lat":43.639722,"lng":3.144722},"aerodromeAltitude":1247,"icaoCode":"LFNX","frequencies":{"afis":[],"atis":[],"autoinfo":[{"frequency":"123.500","remarks":null}],"tower":[],"ground":[]},"name":"BEDARIEUX LA TOUR SUR ORB","mapShortName":"BEDARIEUX","magneticVariation":1.42,"runways":{"mainRunway":{"magneticOrientation":172.45,"surface":"grass","name":"17/35","lengthInMeters":975},"runways":[{"magneticOrientation":172.45,"surface":"grass","name":"17/35","lengthInMeters":975}]},"vfrPoints":[]},{"latLng":{"lat":43.770833,"lng":4.894444},"aerodromeAltitude":395,"icaoCode":"LFNZ","frequencies":{"afis":[],"atis":[],"autoinfo":[{"frequency":"118.450","remarks":null}],"tower":[],"ground":[]},"name":"LE MAZET DE ROMANIN","mapShortName":"LE MAZET","magneticVariation":1.85,"runways":{"mainRunway":{"magneticOrientation":178.82,"surface":"grass","name":"18/36","lengthInMeters":1000},"runways":[{"magneticOrientation":178.82,"surface":"grass","name":"18/36","lengthInMeters":1000}]},"vfrPoints":[]},{"latLng":{"lat":49.203333,"lng":-1.504722},"aerodromeAltitude":96,"icaoCode":"LFOM","frequencies":{"afis":[],"atis":[],"autoinfo":[{"frequency":"128.925","remarks":null}],"tower":[],"ground":[]},"name":"LESSAY","mapShortName":"LESSAY","magneticVariation":-0.22,"runways":{"mainRunway":{"magneticOrientation":62.84,"surface":"grass","name":"06/24","lengthInMeters":1250},"runways":[{"magneticOrientation":62.84,"surface":"grass","name":"06/24","lengthInMeters":1250}]},"vfrPoints":[]},{"latLng":{"lat":48.705833,"lng":1.361389},"aerodromeAltitude":445,"icaoCode":"LFON","frequencies":{"afis":[],"atis":[],"autoinfo":[{"frequency":"118.200","remarks":null}],"tower":[],"ground":[]},"name":"DREUX VERNOUILLET","mapShortName":"DREUX","magneticVariation":0.73,"runways":{"mainRunway":{"magneticOrientation":35.59,"surface":"grass","name":"04/22","lengthInMeters":720},"runways":[{"magneticOrientation":35.59,"surface":"grass","name":"04/22","lengthInMeters":720}]},"vfrPoints":[]},{"latLng":{"lat":46.475556,"lng":-1.725},"aerodromeAltitude":104,"icaoCode":"LFOO","frequencies":{"afis":[],"atis":[],"autoinfo":[{"frequency":"123.350","remarks":null}],"tower":[],"ground":[]},"name":"LES SABLES D'OLONNE TALMONT","mapShortName":"LES SABLES D'OLONNE","magneticVariation":-0.07,"runways":{"mainRunway":{"magneticOrientation":62,"surface":"asphalt","name":"06/24","lengthInMeters":700},"runways":[{"magneticOrientation":62,"surface":"asphalt","name":"06/24","lengthInMeters":700},{"magneticOrientation":62,"surface":"grass","name":"06L/24R","lengthInMeters":725}]},"vfrPoints":[]},{"latLng":{"lat":49.390953,"lng":1.183936},"aerodromeAltitude":512,"icaoCode":"LFOP","frequencies":{"afis":[],"atis":[{"frequency":"120.730","remarks":"TEL : 02 35 80 80 34"}],"autoinfo":[],"tower":[{"frequency":"120.200","remarks":null}],"ground":[]},"name":"ROUEN VALLEE DE SEINE","mapShortName":"ROUEN","magneticVariation":0.63,"runways":{"mainRunway":{"magneticOrientation":41.43,"surface":"asphalt","name":"04/22","lengthInMeters":1700},"runways":[{"magneticOrientation":41.43,"surface":"asphalt","name":"04/22","lengthInMeters":1700},{"magneticOrientation":47.25,"surface":"grass","name":"05/23","lengthInMeters":900}]},"vfrPoints":[{"icaoCode":"LFOP","name":"NW","description":"Rouen Barentin","latLng":{"lat":49.5483,"lng":0.95361}},{"icaoCode":"LFOP","name":"NL","description":"Rouen Ech. Autor. Neufchatel","latLng":{"lat":49.7578,"lng":1.48694}},{"icaoCode":"LFOP","name":"S","description":"Rouen Ecluses Etg de Poses","latLng":{"lat":49.3167,"lng":1.24722}},{"icaoCode":"LFOP","name":"E","description":"Rouen Fleury sur And.","latLng":{"lat":49.3586,"lng":1.35889}},{"icaoCode":"LFOP","name":"N","description":"Rouen Isneauville","latLng":{"lat":49.4928,"lng":1.15944}},{"icaoCode":"LFOP","name":"W","description":"Rouen Viaduc Orival","latLng":{"lat":49.31,"lng":0.99889}}]},{"latLng":{"lat":47.679833,"lng":1.205775},"aerodromeAltitude":398,"icaoCode":"LFOQ","frequencies":{"afis":[{"frequency":"118.450","remarks":"FR seulement HO"}],"atis":[],"autoinfo":[],"tower":[],"ground":[]},"name":"BLOIS LE BREUIL","mapShortName":"BLOIS","magneticVariation":0.74,"runways":{"mainRunway":{"magneticOrientation":121.48,"surface":"asphalt","name":"12/30","lengthInMeters":1250},"runways":[{"magneticOrientation":121.48,"surface":"asphalt","name":"12/30","lengthInMeters":1250},{"magneticOrientation":121.39,"surface":"grass","name":"12L/30R","lengthInMeters":720},{"magneticOrientation":121.39,"surface":"grass","name":"12R/30L","lengthInMeters":630},{"magneticOrientation":21.73,"surface":"grass","name":"02L/20R","lengthInMeters":930},{"magneticOrientation":21.65,"surface":"grass","name":"02R/20L","lengthInMeters":920}]},"vfrPoints":[]},{"latLng":{"lat":48.458889,"lng":1.523889},"aerodromeAltitude":509,"icaoCode":"LFOR","frequencies":{"afis":[],"atis":[],"autoinfo":[{"frequency":"119.200","remarks":null}],"tower":[],"ground":[]},"name":"CHARTRES METROPOLE","mapShortName":"CHARTRES","magneticVariation":0.79,"runways":{"mainRunway":{"magneticOrientation":92.64,"surface":"asphalt","name":"09/27","lengthInMeters":840},"runways":[{"magneticOrientation":92.64,"surface":"asphalt","name":"09/27","lengthInMeters":840},{"magneticOrientation":92.64,"surface":"grass","name":"09L/27R","lengthInMeters":900}]},"vfrPoints":[]},{"latLng":{"lat":49.835278,"lng":0.655556},"aerodromeAltitude":269,"icaoCode":"LFOS","frequencies":{"afis":[],"atis":[],"autoinfo":[{"frequency":"123.500","remarks":null}],"tower":[],"ground":[]},"name":"SAINT VALERY VITTEFLEUR","mapShortName":"ST VALERY","magneticVariation":0.43,"runways":{"mainRunway":{"magneticOrientation":64.33,"surface":"grass","name":"06/24","lengthInMeters":900},"runways":[{"magneticOrientation":64.33,"surface":"grass","name":"06/24","lengthInMeters":900}]},"vfrPoints":[]},{"latLng":{"lat":47.431944,"lng":0.723056},"aerodromeAltitude":357,"icaoCode":"LFOT","frequencies":{"afis":[],"atis":[],"autoinfo":[],"tower":[{"frequency":"124.400","remarks":null},{"frequency":"344.225","remarks":"Air/sol + roulage / Air ground + taxiing"},{"frequency":"257.800","remarks":"Air/sol + roulage / Air ground + taxiing"},{"frequency":"122.100","remarks":null}],"ground":[]},"name":"TOURS VAL DE LOIRE","mapShortName":"TOURS-V. L.","magneticVariation":-0.22,"runways":{"mainRunway":{"magneticOrientation":15,"surface":"asphalt","name":"02/20","lengthInMeters":2404},"runways":[{"magneticOrientation":15,"surface":"asphalt","name":"02/20","lengthInMeters":2404}]},"vfrPoints":[{"icaoCode":"LFOT","name":"SW","description":"Tours Azay le Rideau (VF/Indre)","latLng":{"lat":47.2633,"lng":0.44556}},{"icaoCode":"LFOT","name":"N","description":"Tours Beaumont la Ronce (Chateau)","latLng":{"lat":47.5708,"lng":0.67}},{"icaoCode":"LFOT","name":"NE","description":"Tours Chateau Renault (N10/D766)","latLng":{"lat":47.5903,"lng":0.89972}},{"icaoCode":"LFOT","name":"S1","description":"Tours Ech. A10 Sud Tours","latLng":{"lat":47.3297,"lng":0.69333}},{"icaoCode":"LFOT","name":"S","description":"Tours Esvres (VF/Indre)","latLng":{"lat":47.2819,"lng":0.78472}},{"icaoCode":"LFOT","name":"W","description":"Tours La Membrole (N138/D959)","latLng":{"lat":47.4403,"lng":0.63861}},{"icaoCode":"LFOT","name":"E","description":"Tours Vernou/Brenne (Tunnel TGV)","latLng":{"lat":47.4244,"lng":0.83667}}]},{"latLng":{"lat":49.028611,"lng":1.22},"aerodromeAltitude":465,"icaoCode":"LFOE","frequencies":{"afis":[],"atis":[{"frequency":"138.225","remarks":null}],"autoinfo":[],"tower":[{"frequency":"399.525","remarks":"Utilisable par l'APP / Available for the APP ( PO / QRA)"},{"frequency":"257.800","remarks":"Combinée TWR"},{"frequency":"122.100","remarks":null},{"frequency":"119.700","remarks":"Fréq. veillée TWR"},{"frequency":"125.375","remarks":null}],"ground":[]},"name":"EVREUX FAUVILLE","mapShortName":"EVREUX","magneticVariation":0.67,"runways":{"mainRunway":{"magneticOrientation":39.86,"surface":"asphalt","name":"04/22","lengthInMeters":3001},"runways":[{"magneticOrientation":39.86,"surface":"asphalt","name":"04/22","lengthInMeters":3001}]},"vfrPoints":[{"icaoCode":"LFOE","name":"HS","description":"Evreux Breuil Station Ep.","latLng":{"lat":49.0142,"lng":1.24583}},{"icaoCode":"LFOE","name":"N","description":"Evreux Caer","latLng":{"lat":49.0669,"lng":1.175}},{"icaoCode":"LFOE","name":"WC","description":"Evreux Conches en Ouche","latLng":{"lat":48.95,"lng":0.95}},{"icaoCode":"LFOE","name":"WD","description":"Evreux Damville Etang","latLng":{"lat":48.875,"lng":1.08333}},{"icaoCode":"LFOE","name":"EW","description":"Evreux Ecardenville","latLng":{"lat":49.1261,"lng":0.87028}},{"icaoCode":"LFOE","name":"EE","description":"Evreux Ech. Chaufour","latLng":{"lat":49.0219,"lng":1.4875}},{"icaoCode":"LFOE","name":"S2","description":"Evreux Ech. N154/D833","latLng":{"lat":48.8875,"lng":1.16667}},{"icaoCode":"LFOE","name":"EG","description":"Evreux Est Andelys Ch. Gaillard","latLng":{"lat":49.2378,"lng":1.40472}},{"icaoCode":"LFOE","name":"EN","description":"Evreux Heudebouville","latLng":{"lat":49.1933,"lng":1.24861}},{"icaoCode":"LFOE","name":"HN","description":"Evreux Huest","latLng":{"lat":49.0369,"lng":1.20417}},{"icaoCode":"LFOE","name":"WS","description":"Evreux Jonction Ligne HT","latLng":{"lat":48.8472,"lng":1.21667}},{"icaoCode":"LFOE","name":"WN","description":"Evreux Le Neubourg Hippodr.","latLng":{"lat":49.1361,"lng":0.90278}},{"icaoCode":"LFOE","name":"EL","description":"Evreux Louviers (Peage)","latLng":{"lat":49.2472,"lng":1.18056}},{"icaoCode":"LFOE","name":"ES","description":"Evreux Nonancourt","latLng":{"lat":48.7789,"lng":1.19444}},{"icaoCode":"LFOE","name":"S1","description":"Evreux Prey","latLng":{"lat":48.9617,"lng":1.21222}},{"icaoCode":"LFOE","name":"ET","description":"Evreux Tourny Distillerie","latLng":{"lat":49.1778,"lng":1.54444}}]},{"latLng":{"lat":48.446667,"lng":0.108333},"aerodromeAltitude":476,"icaoCode":"LFOF","frequencies":{"afis":[],"atis":[],"autoinfo":[{"frequency":"118.325","remarks":"FR seulement / only"}],"tower":[],"ground":[]},"name":"ALENCON VALFRAMBERT","mapShortName":"ALENCON","magneticVariation":0.36,"runways":{"mainRunway":{"magneticOrientation":69.48,"surface":"asphalt","name":"07R/25L","lengthInMeters":780},"runways":[{"magneticOrientation":69.48,"surface":"asphalt","name":"07R/25L","lengthInMeters":780},{"magneticOrientation":69.47,"surface":"grass","name":"07L/25R","lengthInMeters":730}]},"vfrPoints":[]},{"latLng":{"lat":48.749722,"lng":-0.594722},"aerodromeAltitude":663,"icaoCode":"LFOG","frequencies":{"afis":[],"atis":[],"autoinfo":[{"frequency":"123.500","remarks":null}],"tower":[],"ground":[]},"name":"FLERS SAINT PAUL","mapShortName":"FLERS","magneticVariation":0.11,"runways":{"mainRunway":{"magneticOrientation":54.06,"surface":"asphalt","name":"05/23","lengthInMeters":742},"runways":[{"magneticOrientation":54.06,"surface":"asphalt","name":"05/23","lengthInMeters":742}]},"vfrPoints":[]},{"latLng":{"lat":49.533847,"lng":0.088119},"aerodromeAltitude":313,"icaoCode":"LFOH","frequencies":{"afis":[{"frequency":"135.205","remarks":"Absence AFIS : A/A FR seulement/only."}],"atis":[],"autoinfo":[],"tower":[],"ground":[]},"name":"LE HAVRE OCTEVILLE","mapShortName":"LE HAVRE O.","magneticVariation":0.27,"runways":{"mainRunway":{"magneticOrientation":43.22,"surface":"asphalt","name":"04/22","lengthInMeters":2300},"runways":[{"magneticOrientation":43.22,"surface":"asphalt","name":"04/22","lengthInMeters":2300}]},"vfrPoints":[]},{"latLng":{"lat":50.142222,"lng":1.831111},"aerodromeAltitude":220,"icaoCode":"LFOI","frequencies":{"afis":[],"atis":[],"autoinfo":[{"frequency":"123.500","remarks":null}],"tower":[],"ground":[]},"name":"ABBEVILLE","mapShortName":"ABBEVILLE","magneticVariation":0.79,"runways":{"mainRunway":{"magneticOrientation":22,"surface":"asphalt","name":"02/20","lengthInMeters":1250},"runways":[{"magneticOrientation":132,"surface":"grass","name":"13/31","lengthInMeters":560},{"magneticOrientation":22,"surface":"asphalt","name":"02/20","lengthInMeters":1250},{"magneticOrientation":22,"surface":"grass","name":"02L/20R","lengthInMeters":900}]},"vfrPoints":[]},{"latLng":{"lat":47.987778,"lng":1.760556},"aerodromeAltitude":412,"icaoCode":"LFOJ","frequencies":{"afis":[],"atis":[],"autoinfo":[],"tower":[{"frequency":"121.500","remarks":"Freq veillée/Monitored frequency"},{"frequency":"243.000","remarks":"Freq veillée/Monitored frequency"},{"frequency":"257.800","remarks":"Freq veillée/Monitored frequency"},{"frequency":"378.750","remarks":"Freq veillée/Monitored frequency"},{"frequency":"124.800","remarks":"Freq veillée/Monitored frequency"},{"frequency":"122.100","remarks":"Freq veillée/Monitored frequency"}],"ground":[]},"name":"ORLEANS BRICY","mapShortName":"O. BRICY","magneticVariation":0.89,"runways":{"mainRunway":{"magneticOrientation":69.31,"surface":"asphalt","name":"07/25","lengthInMeters":2404},"runways":[{"magneticOrientation":69.31,"surface":"asphalt","name":"07/25","lengthInMeters":2404},{"magneticOrientation":39,"surface":"grass","name":"04/22","lengthInMeters":1000}]},"vfrPoints":[{"icaoCode":"LFOJ","name":"S","description":"Orleans Br Aire Repos A10","latLng":{"lat":47.8194,"lng":1.64167}},{"icaoCode":"LFOJ","name":"SE","description":"Orleans Br Ech. A10 A71","latLng":{"lat":47.9028,"lng":1.84722}},{"icaoCode":"LFOJ","name":"N","description":"Orleans Br Etang Nd Artenay","latLng":{"lat":48.1019,"lng":1.88333}},{"icaoCode":"LFOJ","name":"E","description":"Orleans Br Saran Echang.","latLng":{"lat":47.95,"lng":1.84889}},{"icaoCode":"LFOJ","name":"NW","description":"Orleans Br ZI Patay","latLng":{"lat":48.0472,"lng":1.70417}}]},{"latLng":{"lat":48.773325,"lng":4.206156},"aerodromeAltitude":586,"icaoCode":"LFOK","frequencies":{"afis":[{"frequency":"129.400","remarks":"Hors HOR ATC."}],"atis":[{"frequency":"136.380","remarks":"TEL: 03 26 26 15 67."}],"autoinfo":[],"tower":[{"frequency":"129.400","remarks":null}],"ground":[]},"name":"CHALONS VATRY","mapShortName":"CH. VATRY","magneticVariation":1.58,"runways":{"mainRunway":{"magneticOrientation":101.21,"surface":"asphalt","name":"10/28","lengthInMeters":3860},"runways":[{"magneticOrientation":101.21,"surface":"asphalt","name":"10/28","lengthInMeters":3860}]},"vfrPoints":[{"icaoCode":"LFOK","name":"S","description":"Chalons Vatry A26 D98 VF","latLng":{"lat":48.6708,"lng":4.17333}},{"icaoCode":"LFOK","name":"WA","description":"Chalons Vatry Connantray Vaurefoy","latLng":{"lat":48.7475,"lng":4.06222}},{"icaoCode":"LFOK","name":"N","description":"Chalons Vatry Echangeur A26 D5","latLng":{"lat":48.9119,"lng":4.28611}},{"icaoCode":"LFOK","name":"SW","description":"Chalons Vatry Silo W Sommesous","latLng":{"lat":48.735,"lng":4.19222}},{"icaoCode":"LFOK","name":"W","description":"Chalons Vatry Sucrerie Connantre","latLng":{"lat":48.7272,"lng":3.9}},{"icaoCode":"LFOK","name":"N1","description":"Chalons Vatry Usine West Vatry","latLng":{"lat":48.8239,"lng":4.22417}}]},{"latLng":{"lat":48.758889,"lng":0.657778},"aerodromeAltitude":787,"icaoCode":"LFOL","frequencies":{"afis":[],"atis":[],"autoinfo":[{"frequency":"126.855","remarks":null}],"tower":[],"ground":[]},"name":"L'AIGLE SAINT MICHEL","mapShortName":"L'AIGLE","magneticVariation":0.51,"runways":{"mainRunway":{"magneticOrientation":65.77,"surface":"asphalt","name":"07/25","lengthInMeters":763},"runways":[{"magneticOrientation":65.77,"surface":"asphalt","name":"07/25","lengthInMeters":763}]},"vfrPoints":[]},{"latLng":{"lat":44.700556,"lng":6.599167},"aerodromeAltitude":2963,"icaoCode":"LFNC","frequencies":{"afis":[],"atis":[],"autoinfo":[{"frequency":"123.500","remarks":null}],"tower":[],"ground":[]},"name":"MONT DAUPHIN SAINT CREPIN","mapShortName":"MONT DAUPHIN","magneticVariation":2.26,"runways":{"mainRunway":{"magneticOrientation":160.82,"surface":"asphalt","name":"16/34","lengthInMeters":845},"runways":[{"magneticOrientation":160.82,"surface":"grass","name":"16L/34R","lengthInMeters":628},{"magneticOrientation":160.82,"surface":"asphalt","name":"16/34","lengthInMeters":845}]},"vfrPoints":[]},{"latLng":{"lat":44.504081,"lng":3.527633},"aerodromeAltitude":3362,"icaoCode":"LFNB","frequencies":{"afis":[{"frequency":"119.600","remarks":null}],"atis":[],"autoinfo":[],"tower":[],"ground":[]},"name":"MENDE BRENOUX","mapShortName":"MENDE","magneticVariation":1.5,"runways":{"mainRunway":{"magneticOrientation":125.52,"surface":"asphalt","name":"12/30","lengthInMeters":1300},"runways":[{"magneticOrientation":125.52,"surface":"asphalt","name":"12/30","lengthInMeters":1300}]},"vfrPoints":[]},{"latLng":{"lat":44.453889,"lng":6.036667},"aerodromeAltitude":1966,"icaoCode":"LFNA","frequencies":{"afis":[{"frequency":"119.100","remarks":null}],"atis":[{"frequency":"129.330","remarks":"ATIS/V-25NM/FL40"}],"autoinfo":[],"tower":[],"ground":[]},"name":"GAP TALLARD","mapShortName":"GAP","magneticVariation":2.12,"runways":{"mainRunway":{"magneticOrientation":26.07,"surface":"asphalt","name":"02/20","lengthInMeters":945},"runways":[{"magneticOrientation":26.07,"surface":"asphalt","name":"02/20","lengthInMeters":945},{"magneticOrientation":26,"surface":"grass","name":"02R/20L","lengthInMeters":400},{"magneticOrientation":26.07,"surface":"grass","name":"02L/20R","lengthInMeters":700}]},"vfrPoints":[{"icaoCode":"LFNA","name":"S1","description":"Gap Barrage Curbans","latLng":{"lat":44.4208,"lng":6.02028}},{"icaoCode":"LFNA","name":"E1","description":"Gap Carrefour Est Tallard","latLng":{"lat":44.4794,"lng":6.08333}},{"icaoCode":"LFNA","name":"S","description":"Gap Pont Durance","latLng":{"lat":44.3803,"lng":5.94556}},{"icaoCode":"LFNA","name":"E","description":"Gap Sud Remollon","latLng":{"lat":44.4678,"lng":6.16778}},{"icaoCode":"LFNA","name":"N","description":"Gap Viaduc","latLng":{"lat":44.5408,"lng":6.03528}}]},{"latLng":{"lat":43.175,"lng":2.732778},"aerodromeAltitude":204,"icaoCode":"LFMZ","frequencies":{"afis":[{"frequency":"121.200","remarks":"FR uniquement."}],"atis":[],"autoinfo":[],"tower":[],"ground":[]},"name":"LEZIGNAN CORBIERES","mapShortName":"LEZIGNAN","magneticVariation":1.33,"runways":{"mainRunway":{"magneticOrientation":78.51,"surface":"asphalt","name":"08/26","lengthInMeters":1000},"runways":[{"magneticOrientation":78.51,"surface":"asphalt","name":"08/26","lengthInMeters":1000},{"magneticOrientation":78.54,"surface":"grass","name":"08L/26R","lengthInMeters":800}]},"vfrPoints":[]},{"latLng":{"lat":43.602908,"lng":5.108167},"aerodromeAltitude":197,"icaoCode":"LFMY","frequencies":{"afis":[],"atis":[],"autoinfo":[],"tower":[{"frequency":"232.125","remarks":"Particulière Air-Sol UHF/Particular UHF Air-Ground"},{"frequency":"130.300","remarks":"Particulière Air-Sol VHF/Particular Air-Groung VHF"}],"ground":[]},"name":"SALON DE PROVENCE","mapShortName":"SALON","magneticVariation":1.9,"runways":{"mainRunway":{"magneticOrientation":159,"surface":"asphalt","name":"16/34","lengthInMeters":2001},"runways":[{"magneticOrientation":159,"surface":"asphalt","name":"16/34","lengthInMeters":2001},{"magneticOrientation":165,"surface":"grass","name":"16R/34L","lengthInMeters":1100},{"magneticOrientation":87,"surface":"grass","name":"09/27","lengthInMeters":835},{"magneticOrientation":165,"surface":"grass","name":"16L/34R","lengthInMeters":860}]},"vfrPoints":[{"icaoCode":"LFMY","name":"ME","description":"Salon Barrage SW Mallemort","latLng":{"lat":43.7367,"lng":5.19167}},{"icaoCode":"LFMY","name":"W","description":"Salon Circuit Michelin","latLng":{"lat":43.6286,"lng":5.04056}},{"icaoCode":"LFMY","name":"CH","description":"Salon Etang Nd Charleval","latLng":{"lat":43.7317,"lng":5.24167}},{"icaoCode":"LFMY","name":"LR","description":"Salon La Roque Croisement","latLng":{"lat":43.7222,"lng":5.27528}},{"icaoCode":"LFMY","name":"LA","description":"Salon Lamanon","latLng":{"lat":43.7006,"lng":5.10167}},{"icaoCode":"LFMY","name":"EG","description":"Salon Nord Eyguieres","latLng":{"lat":43.7197,"lng":5.02444}},{"icaoCode":"LFMY","name":"PS","description":"Salon Peage Senas","latLng":{"lat":43.7406,"lng":5.09111}},{"icaoCode":"LFMY","name":"CV","description":"Salon Pt TGV Cavaillon","latLng":{"lat":43.8108,"lng":5.04222}},{"icaoCode":"LFMY","name":"SW","description":"Salon SE Cornillon","latLng":{"lat":43.555,"lng":5.08833}},{"icaoCode":"LFMY","name":"N","description":"Salon/Saint-Cannat","latLng":{"lat":43.6208,"lng":5.29694}}]},{"latLng":{"lat":44.058611,"lng":5.990833},"aerodromeAltitude":1507,"icaoCode":"LFMX","frequencies":{"afis":[],"atis":[],"autoinfo":[{"frequency":"122.300","remarks":null}],"tower":[],"ground":[]},"name":"CHATEAU ARNOUX SAINT AUBAN","mapShortName":"CH. A. ST AUBAN","magneticVariation":2.11,"runways":{"mainRunway":{"magneticOrientation":23.21,"surface":"grass","name":"02/20","lengthInMeters":1240},"runways":[{"magneticOrientation":23.21,"surface":"grass","name":"02/20","lengthInMeters":1240}]},"vfrPoints":[]},{"latLng":{"lat":43.311111,"lng":1.92},"aerodromeAltitude":553,"icaoCode":"LFMW","frequencies":{"afis":[],"atis":[],"autoinfo":[{"frequency":"118.905","remarks":null}],"tower":[],"ground":[]},"name":"CASTELNAUDARY VILLENEUVE","mapShortName":"CASTELNAUDARY","magneticVariation":1.12,"runways":{"mainRunway":{"magneticOrientation":109.71,"surface":"asphalt","name":"11/29","lengthInMeters":810},"runways":[{"magneticOrientation":109.71,"surface":"asphalt","name":"11/29","lengthInMeters":810}]},"vfrPoints":[]},{"latLng":{"lat":43.906581,"lng":4.902028},"aerodromeAltitude":124,"icaoCode":"LFMV","frequencies":{"afis":[],"atis":[{"frequency":"120.830","remarks":null}],"autoinfo":[],"tower":[{"frequency":"122.600","remarks":"Absence ATS : A/A FR seulement/only"}],"ground":[]},"name":"AVIGNON CAUMONT","mapShortName":"AVIGNON C.","magneticVariation":1.85,"runways":{"mainRunway":{"magneticOrientation":168.95,"surface":"asphalt","name":"17/35","lengthInMeters":1880},"runways":[{"magneticOrientation":168.95,"surface":"asphalt","name":"17/35","lengthInMeters":1880},{"magneticOrientation":168.93,"surface":"grass","name":"17R/35L","lengthInMeters":700},{"magneticOrientation":168.79,"surface":"grass","name":"17L/35R","lengthInMeters":250}]},"vfrPoints":[{"icaoCode":"LFMV","name":"NE","description":"Avignon C. Carpentras","latLng":{"lat":44.0542,"lng":5.05139}},{"icaoCode":"LFMV","name":"W","description":"Avignon C. Durance Rhone","latLng":{"lat":43.9222,"lng":4.74167}},{"icaoCode":"LFMV","name":"SW","description":"Avignon C. Graveson","latLng":{"lat":43.8583,"lng":4.77917}},{"icaoCode":"LFMV","name":"NA","description":"Avignon C. Ile Barthelasse","latLng":{"lat":43.9872,"lng":4.82472}},{"icaoCode":"LFMV","name":"E","description":"Avignon C. Isle sur Sorgue","latLng":{"lat":43.9203,"lng":5.05694}},{"icaoCode":"LFMV","name":"NW","description":"Avignon C. Roquemaure","latLng":{"lat":44.0603,"lng":4.78972}},{"icaoCode":"LFMV","name":"SE","description":"Avignon C. Sabliere Nord Durance","latLng":{"lat":43.8583,"lng":4.9875}}]},{"latLng":{"lat":43.323428,"lng":3.353397},"aerodromeAltitude":56,"icaoCode":"LFMU","frequencies":{"afis":[],"atis":[{"frequency":"127.530","remarks":"TEL +33(0)4 67 90 88 88"}],"autoinfo":[],"tower":[{"frequency":"120.175","remarks":"Absence HOR ATS A/A FR seulement/only"}],"ground":[]},"name":"BEZIERS VIAS","mapShortName":"BEZIERS","magneticVariation":1.48,"runways":{"mainRunway":{"magneticOrientation":94.35,"surface":"asphalt","name":"09/27","lengthInMeters":2000},"runways":[{"magneticOrientation":94.35,"surface":"asphalt","name":"09/27","lengthInMeters":2000}]},"vfrPoints":[{"icaoCode":"LFMU","name":"SE","description":"Beziers Cap d'Agde","latLng":{"lat":43.2706,"lng":3.50583}},{"icaoCode":"LFMU","name":"CG","description":"Beziers Capestang","latLng":{"lat":43.3311,"lng":3.04167}},{"icaoCode":"LFMU","name":"AD","description":"Beziers Embouchure Aude","latLng":{"lat":43.2128,"lng":3.24}},{"icaoCode":"LFMU","name":"NB","description":"Beziers Lieuran les Beziers","latLng":{"lat":43.4206,"lng":3.23694}},{"icaoCode":"LFMU","name":"PZ","description":"Beziers Pezenas","latLng":{"lat":43.4747,"lng":3.44528}},{"icaoCode":"LFMU","name":"MZ","description":"Beziers ZI NW Meze Autor.","latLng":{"lat":43.4425,"lng":3.57611}}]},{"latLng":{"lat":43.583261,"lng":3.961378},"aerodromeAltitude":17,"icaoCode":"LFMT","frequencies":{"afis":[],"atis":[{"frequency":"124.130","remarks":"TEL ATIS : 04 67 13 11 70"}],"autoinfo":[],"tower":[{"frequency":"118.200","remarks":null},{"frequency":"118.775","remarks":null}],"ground":[{"frequency":"121.955","remarks":null}]},"name":"MONTPELLIER MEDITERRANEE","mapShortName":"MONTPELLIER M.","magneticVariation":1.63,"runways":{"mainRunway":{"magneticOrientation":124.69,"surface":"asphalt","name":"12L/30R","lengthInMeters":2600},"runways":[{"magneticOrientation":124.69,"surface":"asphalt","name":"12R/30L","lengthInMeters":1100},{"magneticOrientation":124.69,"surface":"asphalt","name":"12L/30R","lengthInMeters":2600}]},"vfrPoints":[{"icaoCode":"LFMT","name":"NF","description":"Montpellier Carriere de Beaulieu","latLng":{"lat":43.7147,"lng":4.02}},{"icaoCode":"LFMT","name":"SW","description":"Montpellier Cath. Maguelone","latLng":{"lat":43.5125,"lng":3.88361}},{"icaoCode":"LFMT","name":"NE","description":"Montpellier Ch d'eau Castries","latLng":{"lat":43.68,"lng":3.98083}},{"icaoCode":"LFMT","name":"NC","description":"Montpellier Ch d'eau Mauguio + Ech.","latLng":{"lat":43.6253,"lng":4.00389}},{"icaoCode":"LFMT","name":"PF","description":"Montpellier Ech. Prades","latLng":{"lat":43.7292,"lng":3.86972}},{"icaoCode":"LFMT","name":"WF","description":"Montpellier Ech. St Georges","latLng":{"lat":43.6347,"lng":3.75806}},{"icaoCode":"LFMT","name":"NW","description":"Montpellier Ech. Sud St-Gely + CC","latLng":{"lat":43.6742,"lng":3.81944}},{"icaoCode":"LFMT","name":"ER","description":"Montpellier Echangeur D62/D61 N Gde M","latLng":{"lat":43.5786,"lng":4.10083}},{"icaoCode":"LFMT","name":"SA","description":"Montpellier Emb. Canal Recul","latLng":{"lat":43.46,"lng":4.2325}},{"icaoCode":"LFMT","name":"N","description":"Montpellier Nord Sommieres","latLng":{"lat":43.7914,"lng":4.09028}},{"icaoCode":"LFMT","name":"W","description":"Montpellier Peage Saint Jean de Vedas","latLng":{"lat":43.5622,"lng":3.83056}},{"icaoCode":"LFMT","name":"SF","description":"Montpellier Pont entre etangs","latLng":{"lat":43.4661,"lng":3.81528}},{"icaoCode":"LFMT","name":"AM","description":"Montpellier Remparts Aigues M","latLng":{"lat":43.5636,"lng":4.19278}},{"icaoCode":"LFMT","name":"ES","description":"Montpellier Sud Ph Espiguette","latLng":{"lat":43.4828,"lng":4.14194}}]},{"latLng":{"lat":44.072733,"lng":4.142919},"aerodromeAltitude":668,"icaoCode":"LFMS","frequencies":{"afis":[],"atis":[],"autoinfo":[{"frequency":"130.200","remarks":null}],"tower":[],"ground":[]},"name":"ALES CEVENNES","mapShortName":"ALES","magneticVariation":1.67,"runways":{"mainRunway":{"magneticOrientation":12.95,"surface":"asphalt","name":"01/19","lengthInMeters":1400},"runways":[{"magneticOrientation":12.95,"surface":"asphalt","name":"01/19","lengthInMeters":1400}]},"vfrPoints":[]},{"latLng":{"lat":43.536667,"lng":5.1775},"aerodromeAltitude":108,"icaoCode":"LFNR","frequencies":{"afis":[],"atis":[],"autoinfo":[{"frequency":"118.325","remarks":null}],"tower":[],"ground":[]},"name":"BERRE LA FARE","mapShortName":"B. LA FARE","magneticVariation":1.92,"runways":{"mainRunway":{"magneticOrientation":85.24,"surface":"grass","name":"08/26","lengthInMeters":1090},"runways":[{"magneticOrientation":159.47,"surface":"grass","name":"16/34","lengthInMeters":940},{"magneticOrientation":85.24,"surface":"grass","name":"08/26","lengthInMeters":1090}]},"vfrPoints":[]},{"latLng":{"lat":44.286667,"lng":5.929167},"aerodromeAltitude":1778,"icaoCode":"LFNS","frequencies":{"afis":[],"atis":[],"autoinfo":[{"frequency":"120.050","remarks":null}],"tower":[],"ground":[]},"name":"SISTERON VAUMEILH","mapShortName":"SISTERON","magneticVariation":2.1,"runways":{"mainRunway":{"magneticOrientation":174.99,"surface":"grass","name":"17/35","lengthInMeters":950},"runways":[{"magneticOrientation":174.99,"surface":"grass","name":"17/35","lengthInMeters":950}]},"vfrPoints":[]},{"latLng":{"lat":42.543461,"lng":2.120022},"aerodromeAltitude":5612,"icaoCode":"LFNQ","frequencies":{"afis":[],"atis":[],"autoinfo":[{"frequency":"123.500","remarks":null}],"tower":[],"ground":[]},"name":"LA LLAGONNE LA QUILLANE","mapShortName":"LA LLAGONNE","magneticVariation":1.18,"runways":{"mainRunway":{"magneticOrientation":141.89,"surface":"grass","name":"14/32","lengthInMeters":1026},"runways":[{"magneticOrientation":141.89,"surface":"grass","name":"14/32","lengthInMeters":1026}]},"vfrPoints":[]},{"latLng":{"lat":43.194167,"lng":3.051667},"aerodromeAltitude":10,"icaoCode":"LFNN","frequencies":{"afis":[],"atis":[],"autoinfo":[{"frequency":"123.500","remarks":null}],"tower":[],"ground":[]},"name":"NARBONNE","mapShortName":"NARBONNE","magneticVariation":1.41,"runways":{"mainRunway":{"magneticOrientation":104.33,"surface":"grass","name":"10/28","lengthInMeters":710},"runways":[{"magneticOrientation":104.33,"surface":"grass","name":"10/28","lengthInMeters":710}]},"vfrPoints":[]},{"latLng":{"lat":44.285556,"lng":3.465556},"aerodromeAltitude":3055,"icaoCode":"LFNO","frequencies":{"afis":[],"atis":[],"autoinfo":[{"frequency":"120.430","remarks":null}],"tower":[],"ground":[]},"name":"FLORAC SAINTE ENIMIE","mapShortName":"FLORAC","magneticVariation":1.49,"runways":{"mainRunway":{"magneticOrientation":87.04,"surface":"grass","name":"09/27","lengthInMeters":762},"runways":[{"magneticOrientation":26.8,"surface":"grass","name":"03/21","lengthInMeters":650},{"magneticOrientation":87.04,"surface":"grass","name":"09/27","lengthInMeters":762},{"magneticOrientation":140,"surface":"grass","name":"14/32","lengthInMeters":750}]},"vfrPoints":[]},{"latLng":{"lat":43.800278,"lng":3.781667},"aerodromeAltitude":602,"icaoCode":"LFNL","frequencies":{"afis":[],"atis":[],"autoinfo":[{"frequency":"122.505","remarks":null}],"tower":[],"ground":[]},"name":"SAINT MARTIN DE LONDRES","mapShortName":"ST MARTIN","magneticVariation":1.58,"runways":{"mainRunway":{"magneticOrientation":119.22,"surface":"grass","name":"12L/30R","lengthInMeters":550},"runways":[{"magneticOrientation":119.22,"surface":"grass","name":"12L/30R","lengthInMeters":550},{"magneticOrientation":119.34,"surface":"grass","name":"12R/30L","lengthInMeters":575}]},"vfrPoints":[]},{"latLng":{"lat":44.517778,"lng":5.736111},"aerodromeAltitude":2727,"icaoCode":"LFNJ","frequencies":{"afis":[],"atis":[],"autoinfo":[{"frequency":"123.500","remarks":null}],"tower":[],"ground":[]},"name":"ASPRES SUR BUECH","mapShortName":"ASPRES","magneticVariation":2.05,"runways":{"mainRunway":{"magneticOrientation":3.88,"surface":"grass","name":"18/36","lengthInMeters":895},"runways":[{"magneticOrientation":3.88,"surface":"grass","name":"18/36","lengthInMeters":895},{"magneticOrientation":103.25,"surface":"grass","name":"10/28","lengthInMeters":650}]},"vfrPoints":[]},{"latLng":{"lat":44.0225,"lng":5.09},"aerodromeAltitude":388,"icaoCode":"LFNH","frequencies":{"afis":[],"atis":[],"autoinfo":[{"frequency":"118.175","remarks":null}],"tower":[],"ground":[]},"name":"CARPENTRAS","mapShortName":"CARPENTRAS","magneticVariation":1.9,"runways":{"mainRunway":{"magneticOrientation":131.85,"surface":"asphalt","name":"13/31","lengthInMeters":1200},"runways":[{"magneticOrientation":131.85,"surface":"asphalt","name":"13/31","lengthInMeters":1200},{"magneticOrientation":131.9,"surface":"grass","name":"13R/31L","lengthInMeters":850}]},"vfrPoints":[{"icaoCode":"LFNH","name":"NE","description":"Carpentras NE arr Planeurs","latLng":{"lat":44.0364,"lng":5.09472}}]},{"latLng":{"lat":43.736389,"lng":5.783056},"aerodromeAltitude":903,"icaoCode":"LFNF","frequencies":{"afis":[],"atis":[],"autoinfo":[{"frequency":"118.155","remarks":null}],"tower":[],"ground":[]},"name":"VINON","mapShortName":"VINON","magneticVariation":2.06,"runways":{"mainRunway":{"magneticOrientation":22.62,"surface":"grass","name":"02/20","lengthInMeters":1250},"runways":[{"magneticOrientation":22.62,"surface":"grass","name":"02/20","lengthInMeters":1250},{"magneticOrientation":101.9,"surface":"grass","name":"10/28","lengthInMeters":1054},{"magneticOrientation":160.73,"surface":"grass","name":"16/34","lengthInMeters":780}]},"vfrPoints":[]},{"latLng":{"lat":43.610172,"lng":4.070161},"aerodromeAltitude":5,"icaoCode":"LFNG","frequencies":{"afis":[],"atis":[],"autoinfo":[{"frequency":"120.600","remarks":null}],"tower":[],"ground":[]},"name":"MONTPELLIER CANDILLARGUES","mapShortName":"M. CANDILLARGUES","magneticVariation":1.65,"runways":{"mainRunway":{"magneticOrientation":143.56,"surface":"asphalt","name":"14/32","lengthInMeters":900},"runways":[{"magneticOrientation":143.56,"surface":"asphalt","name":"14/32","lengthInMeters":900}]},"vfrPoints":[]},{"latLng":{"lat":43.6575,"lng":5.012778},"aerodromeAltitude":247,"icaoCode":"LFNE","frequencies":{"afis":[],"atis":[],"autoinfo":[{"frequency":"119.575","remarks":null}],"tower":[],"ground":[]},"name":"SALON EYGUIERES","mapShortName":"S. EYGUIERES","magneticVariation":1.88,"runways":{"mainRunway":{"magneticOrientation":155.4,"surface":"grass","name":"15/33","lengthInMeters":1200},"runways":[{"magneticOrientation":90.4,"surface":"grass","name":"09/27","lengthInMeters":1280},{"magneticOrientation":155.4,"surface":"grass","name":"15/33","lengthInMeters":1200}]},"vfrPoints":[]},{"latLng":{"lat":43.505278,"lng":5.367222},"aerodromeAltitude":368,"icaoCode":"LFMA","frequencies":{"afis":[],"atis":[{"frequency":"136.230","remarks":null}],"autoinfo":[],"tower":[{"frequency":"118.750","remarks":"Auto-information en Français uniquement."}],"ground":[{"frequency":"121.605","remarks":"Auto-information en Français uniquement."}]},"name":"AIX LES MILLES","mapShortName":"AIX","magneticVariation":1.96,"runways":{"mainRunway":{"magneticOrientation":145.65,"surface":"asphalt","name":"14/32","lengthInMeters":1504},"runways":[{"magneticOrientation":145.65,"surface":"asphalt","name":"14/32","lengthInMeters":1504}]},"vfrPoints":[{"icaoCode":"LFMA","name":"AE","description":"Aix 1 Km Nord Ch Gardanne","latLng":{"lat":43.48,"lng":5.48528}},{"icaoCode":"LFMA","name":"AS","description":"Aix 1 Km W Cabries","latLng":{"lat":43.445,"lng":5.37222}},{"icaoCode":"LFMA","name":"AW","description":"Aix Acqueduc Roquefavour","latLng":{"lat":43.5161,"lng":5.31194}},{"icaoCode":"LFMA","name":"AR","description":"Aix Bretelle A8 Aix Ouest - Panne Radio","latLng":{"lat":43.5269,"lng":5.40222}},{"icaoCode":"LFMA","name":"AT","description":"Aix Carrefour Est Eguilles","latLng":{"lat":43.5725,"lng":5.39194}},{"icaoCode":"LFMA","name":"AN","description":"Aix Tr Est tr de guet W Eguilles","latLng":{"lat":43.5639,"lng":5.33639}}]},{"latLng":{"lat":45.706667,"lng":4.196944},"aerodromeAltitude":1095,"icaoCode":"LFLZ","frequencies":{"afis":[],"atis":[],"autoinfo":[{"frequency":"123.500","remarks":null}],"tower":[],"ground":[]},"name":"FEURS CHAMBEON","mapShortName":"FEURS","magneticVariation":1.65,"runways":{"mainRunway":{"magneticOrientation":152.92,"surface":"grass","name":"15/33","lengthInMeters":940},"runways":[{"magneticOrientation":152.92,"surface":"grass","name":"15/33","lengthInMeters":940}]},"vfrPoints":[]},{"latLng":{"lat":44.897583,"lng":2.416719},"aerodromeAltitude":2096,"icaoCode":"LFLW","frequencies":{"afis":[{"frequency":"118.325","remarks":null}],"atis":[],"autoinfo":[],"tower":[],"ground":[]},"name":"AURILLAC","mapShortName":"AURILLAC","magneticVariation":1.2,"runways":{"mainRunway":{"magneticOrientation":149.85,"surface":"asphalt","name":"15/33","lengthInMeters":1700},"runways":[{"magneticOrientation":149.85,"surface":"asphalt","name":"15/33","lengthInMeters":1700}]},"vfrPoints":[]},{"latLng":{"lat":3.6575,"lng":-54.037222},"aerodromeAltitude":379,"icaoCode":"SOOA","frequencies":{"afis":[],"atis":[],"autoinfo":[{"frequency":"123.500","remarks":null}],"tower":[],"ground":[]},"name":"MARIPASOULA","mapShortName":"MARIPASOULA","magneticVariation":-18.17,"runways":{"mainRunway":{"magneticOrientation":55,"surface":"asphalt","name":"07/25","lengthInMeters":1198},"runways":[{"magneticOrientation":55,"surface":"asphalt","name":"07/25","lengthInMeters":1198}]},"vfrPoints":[]},{"latLng":{"lat":46.171783,"lng":3.404033},"aerodromeAltitude":817,"icaoCode":"LFLV","frequencies":{"afis":[{"frequency":"121.400","remarks":null}],"atis":[],"autoinfo":[],"tower":[],"ground":[]},"name":"VICHY CHARMEIL","mapShortName":"VICHY","magneticVariation":1.43,"runways":{"mainRunway":{"magneticOrientation":8.07,"surface":"asphalt","name":"01/19","lengthInMeters":2200},"runways":[{"magneticOrientation":8.07,"surface":"asphalt","name":"01/19","lengthInMeters":2200}]},"vfrPoints":[]},{"latLng":{"lat":45.729519,"lng":4.938844},"aerodromeAltitude":659,"icaoCode":"LFLY","frequencies":{"afis":[],"atis":[{"frequency":"128.130","remarks":null}],"autoinfo":[],"tower":[{"frequency":"118.100","remarks":null}],"ground":[{"frequency":"121.705","remarks":null}]},"name":"LYON BRON","mapShortName":"L. BRON","magneticVariation":1.85,"runways":{"mainRunway":{"magneticOrientation":163.39,"surface":"asphalt","name":"16/34","lengthInMeters":1820},"runways":[{"magneticOrientation":163.39,"surface":"asphalt","name":"16/34","lengthInMeters":1820}]},"vfrPoints":[{"icaoCode":"LFLY","name":"NW","description":"Lyon Bron Barrage de Couzon","latLng":{"lat":45.845,"lng":4.83333}},{"icaoCode":"LFLY","name":"S","description":"Lyon Bron Echg Chasse","latLng":{"lat":45.5897,"lng":4.79667}},{"icaoCode":"LFLY","name":"N","description":"Lyon Bron G.Triage St Germain","latLng":{"lat":45.8919,"lng":4.80111}},{"icaoCode":"LFLY","name":"SA","description":"Lyon Bron Gare Triage FEYZIN","latLng":{"lat":45.6497,"lng":4.84056}},{"icaoCode":"LFLY","name":"NA","description":"Lyon Bron Inter A6 TGV N83","latLng":{"lat":45.8569,"lng":4.91333}},{"icaoCode":"LFLY","name":"TW","description":"Lyon Bron Rd Pt Ouest Satolas","latLng":{"lat":45.7169,"lng":5.07056}},{"icaoCode":"LFLY","name":"MS","description":"Lyon Bron Rd Pt SE Genas","latLng":{"lat":45.7233,"lng":5.02333}}]},{"latLng":{"lat":46.860314,"lng":1.721125},"aerodromeAltitude":529,"icaoCode":"LFLX","frequencies":{"afis":[{"frequency":"125.875","remarks":"(1) En dehors de ces HOR, PPR PN 2HR TEL permanence gestionnaire.#(1) Outside these SKED, PPR 2HR TEL AD operator permanence"},{"frequency":"133.805","remarks":null}],"atis":[],"autoinfo":[],"tower":[{"frequency":"133.805","remarks":null},{"frequency":"125.875","remarks":null}],"ground":[]},"name":"CHATEAUROUX DEOLS","mapShortName":"CHATEAUROUX D.","magneticVariation":0.94,"runways":{"mainRunway":{"magneticOrientation":33.21,"surface":"asphalt","name":"03/21","lengthInMeters":3500},"runways":[{"magneticOrientation":33.21,"surface":"asphalt","name":"03/21","lengthInMeters":3500}]},"vfrPoints":[{"icaoCode":"LFLX","name":"SE","description":"Chateauroux Ardentes","latLng":{"lat":46.7417,"lng":1.83056}},{"icaoCode":"LFLX","name":"NW","description":"Chateauroux Chat. Villegongis","latLng":{"lat":46.9147,"lng":1.59861}},{"icaoCode":"LFLX","name":"S","description":"Chateauroux Echangeur","latLng":{"lat":46.6994,"lng":1.58333}},{"icaoCode":"LFLX","name":"E","description":"Chateauroux Inters. A Vouillon","latLng":{"lat":46.8219,"lng":1.925}},{"icaoCode":"LFLX","name":"N","description":"Chateauroux Levroux Poste Electr.","latLng":{"lat":46.9728,"lng":1.6}},{"icaoCode":"LFLX","name":"NE","description":"Chateauroux Sud Issoudun","latLng":{"lat":46.9386,"lng":1.99722}},{"icaoCode":"LFLX","name":"W","description":"Chateauroux Villedieux/Indre Cimet.","latLng":{"lat":46.8506,"lng":1.53028}}]},{"latLng":{"lat":45.362936,"lng":5.332664},"aerodromeAltitude":1302,"icaoCode":"LFLS","frequencies":{"afis":[],"atis":[{"frequency":"133.855","remarks":null}],"autoinfo":[],"tower":[{"frequency":"119.300","remarks":null}],"ground":[{"frequency":"121.930","remarks":"Contrôle ACFT au sol."}]},"name":"GRENOBLE ALPES ISERE","mapShortName":"GRENOBLE ALPES ISERE","magneticVariation":1.95,"runways":{"mainRunway":{"magneticOrientation":90.23,"surface":"asphalt","name":"09/27","lengthInMeters":3050},"runways":[{"magneticOrientation":90.23,"surface":"asphalt","name":"09/27","lengthInMeters":3050},{"magneticOrientation":90.2,"surface":"grass","name":"09R/27L","lengthInMeters":900}]},"vfrPoints":[{"icaoCode":"LFLS","name":"N","description":"Grenoble Champier circuit","latLng":{"lat":45.4689,"lng":5.2975}},{"icaoCode":"LFLS","name":"S","description":"Grenoble Lac Sud Roybon","latLng":{"lat":45.2517,"lng":5.24639}},{"icaoCode":"LFLS","name":"NE","description":"Grenoble Nord Lac de Paladru","latLng":{"lat":45.4719,"lng":5.55583}},{"icaoCode":"LFLS","name":"SE","description":"Grenoble Nord Voreppe","latLng":{"lat":45.3097,"lng":5.6175}},{"icaoCode":"LFLS","name":"W","description":"Grenoble Rd Point Dev Beaurepaire","latLng":{"lat":45.3239,"lng":5.05361}},{"icaoCode":"LFLS","name":"NW","description":"Grenoble Tunnel TGV","latLng":{"lat":45.445,"lng":5.0325}}]},{"latLng":{"lat":45.255,"lng":4.824722},"aerodromeAltitude":509,"icaoCode":"LFLR","frequencies":{"afis":[],"atis":[],"autoinfo":[{"frequency":"123.500","remarks":null}],"tower":[],"ground":[]},"name":"SAINT RAMBERT D'ALBON","mapShortName":"ST RAMBERT","magneticVariation":1.82,"runways":{"mainRunway":{"magneticOrientation":7.27,"surface":"grass","name":"01L/19R","lengthInMeters":880},"runways":[{"magneticOrientation":7.27,"surface":"grass","name":"01R/19L","lengthInMeters":900},{"magneticOrientation":7.27,"surface":"grass","name":"01L/19R","lengthInMeters":880}]},"vfrPoints":[]},{"latLng":{"lat":44.915558,"lng":4.968744},"aerodromeAltitude":525,"icaoCode":"LFLU","frequencies":{"afis":[{"frequency":"120.100","remarks":null}],"atis":[],"autoinfo":[],"tower":[],"ground":[]},"name":"VALENCE CHABEUIL","mapShortName":"VALENCE","magneticVariation":1.86,"runways":{"mainRunway":{"magneticOrientation":7.76,"surface":"asphalt","name":"01/19","lengthInMeters":2100},"runways":[{"magneticOrientation":7.76,"surface":"asphalt","name":"01/19","lengthInMeters":2100},{"magneticOrientation":7.73,"surface":"grass","name":"01L/19R","lengthInMeters":1190},{"magneticOrientation":7.73,"surface":"grass","name":"01R/19L","lengthInMeters":400}]},"vfrPoints":[{"icaoCode":"LFLU","name":"S","description":"Valence Ech. VF Livron","latLng":{"lat":44.7761,"lng":4.82639}},{"icaoCode":"LFLU","name":"SA","description":"Valence Gare triage PLV","latLng":{"lat":44.8739,"lng":4.87167}},{"icaoCode":"LFLU","name":"NE","description":"Valence Peage Chatuzange","latLng":{"lat":45.0258,"lng":5.09694}},{"icaoCode":"LFLU","name":"NW","description":"Valence Pt sur Isere","latLng":{"lat":44.9986,"lng":4.87667}}]},{"latLng":{"lat":46.352778,"lng":2.570556},"aerodromeAltitude":771,"icaoCode":"LFLT","frequencies":{"afis":[],"atis":[],"autoinfo":[{"frequency":"123.500","remarks":null}],"tower":[],"ground":[]},"name":"MONTLUCON DOMERAT","mapShortName":"M. DOMERAT","magneticVariation":1.2,"runways":{"mainRunway":{"magneticOrientation":110.18,"surface":"asphalt","name":"11/29","lengthInMeters":1000},"runways":[{"magneticOrientation":110.18,"surface":"asphalt","name":"11/29","lengthInMeters":1000}]},"vfrPoints":[{"icaoCode":"LFLT","name":"S","description":"Montlucon D. Etang de Sault","latLng":{"lat":46.3325,"lng":2.55972}},{"icaoCode":"LFLT","name":"N","description":"Montlucon D. Piste Dunlop","latLng":{"lat":46.3831,"lng":2.58667}}]},{"latLng":{"lat":44.140089,"lng":4.868581},"aerodromeAltitude":197,"icaoCode":"LFMO","frequencies":{"afis":[],"atis":[],"autoinfo":[],"tower":[{"frequency":"121.500","remarks":"FREQ veillée/monitored"},{"frequency":"388.775","remarks":"FREQ veillée/monitored"},{"frequency":"243.000","remarks":"Détresse seulement/Distress only"},{"frequency":"257.800","remarks":"FREQ veillée/monitored"},{"frequency":"122.100","remarks":"FREQ veillée/monitored"},{"frequency":"128.950","remarks":"FREQ veillée/monitored"}],"ground":[]},"name":"ORANGE CARITAT","mapShortName":"ORANGE C.","magneticVariation":1.84,"runways":{"mainRunway":{"magneticOrientation":144.16,"surface":"asphalt","name":"14/32","lengthInMeters":2407},"runways":[{"magneticOrientation":144.16,"surface":"asphalt","name":"14/32","lengthInMeters":2407}]},"vfrPoints":[{"icaoCode":"LFMO","name":"NW","description":"Orange Bourg St-Andreol","latLng":{"lat":44.3736,"lng":4.63972}},{"icaoCode":"LFMO","name":"WA","description":"Orange Caderousse","latLng":{"lat":44.1042,"lng":4.75972}},{"icaoCode":"LFMO","name":"SE","description":"Orange Carpentras","latLng":{"lat":44.0669,"lng":5.03722}},{"icaoCode":"LFMO","name":"WB","description":"Orange Mondragon","latLng":{"lat":44.2419,"lng":4.71194}},{"icaoCode":"LFMO","name":"SW","description":"Orange Nd Roquemaure","latLng":{"lat":44.0694,"lng":4.76583}},{"icaoCode":"LFMO","name":"E","description":"Orange Plan de Dieu","latLng":{"lat":44.1789,"lng":4.91889}},{"icaoCode":"LFMO","name":"NE","description":"Orange Tulette","latLng":{"lat":44.2839,"lng":4.92694}}]},{"latLng":{"lat":42.740833,"lng":2.869722},"aerodromeAltitude":144,"icaoCode":"LFMP","frequencies":{"afis":[],"atis":[{"frequency":"127.880","remarks":null}],"autoinfo":[],"tower":[{"frequency":"118.300","remarks":null}],"ground":[]},"name":"PERPIGNAN RIVESALTES","mapShortName":"PERPIGNAN R.","magneticVariation":1.37,"runways":{"mainRunway":{"magneticOrientation":148.28,"surface":"asphalt","name":"15/33","lengthInMeters":2500},"runways":[{"magneticOrientation":148.28,"surface":"asphalt","name":"15/33","lengthInMeters":2500},{"magneticOrientation":127.46,"surface":"asphalt","name":"13/31","lengthInMeters":1085}]},"vfrPoints":[{"icaoCode":"LFMP","name":"MS","description":"Perpignan Ech. N612/N9 Mas Sab.","latLng":{"lat":42.6083,"lng":2.86056}},{"icaoCode":"LFMP","name":"E","description":"Perpignan Embouch. Agly","latLng":{"lat":42.7789,"lng":3.03861}},{"icaoCode":"LFMP","name":"SE","description":"Perpignan Entree Port Canet","latLng":{"lat":42.7031,"lng":3.0375}},{"icaoCode":"LFMP","name":"PC","description":"Perpignan Entree Port St-Cyprien","latLng":{"lat":42.6197,"lng":3.03917}},{"icaoCode":"LFMP","name":"NL","description":"Perpignan Ph. Cap Leucate","latLng":{"lat":42.9103,"lng":3.05583}},{"icaoCode":"LFMP","name":"WS","description":"Perpignan Plan d'eau Bosigues","latLng":{"lat":42.6819,"lng":2.75917}},{"icaoCode":"LFMP","name":"EA","description":"Perpignan Pont sur l'Agly","latLng":{"lat":42.7639,"lng":2.98694}},{"icaoCode":"LFMP","name":"NF","description":"Perpignan Prequ'ile Port Fitou","latLng":{"lat":42.8767,"lng":3.05583}}]},{"latLng":{"lat":43.252222,"lng":5.786111},"aerodromeAltitude":1391,"icaoCode":"LFMQ","frequencies":{"afis":[{"frequency":"119.000","remarks":null}],"atis":[],"autoinfo":[],"tower":[],"ground":[]},"name":"LE CASTELLET","mapShortName":"LE CASTELLET","magneticVariation":2.06,"runways":{"mainRunway":{"magneticOrientation":126.81,"surface":"asphalt","name":"12/30","lengthInMeters":1545},"runways":[{"magneticOrientation":126.81,"surface":"asphalt","name":"12/30","lengthInMeters":1545}]},"vfrPoints":[]},{"latLng":{"lat":3.893333,"lng":-51.805556},"aerodromeAltitude":29,"icaoCode":"SOOG","frequencies":{"afis":[],"atis":[],"autoinfo":[{"frequency":"123.500","remarks":null}],"tower":[],"ground":[]},"name":"SAINT GEORGES DE L'OYAPOCK","mapShortName":"SAINT GEORGES","magneticVariation":-18.68,"runways":{"mainRunway":{"magneticOrientation":17.99,"surface":"asphalt","name":"04/22","lengthInMeters":1200},"runways":[{"magneticOrientation":17.99,"surface":"asphalt","name":"04/22","lengthInMeters":1200}]},"vfrPoints":[]},{"latLng":{"lat":44.387222,"lng":6.609167},"aerodromeAltitude":3714,"icaoCode":"LFMR","frequencies":{"afis":[],"atis":[],"autoinfo":[{"frequency":"123.500","remarks":null}],"tower":[],"ground":[]},"name":"BARCELONNETTE SAINT PONS","mapShortName":"BARCELONNETTE","magneticVariation":2.26,"runways":{"mainRunway":{"magneticOrientation":92.02,"surface":"asphalt","name":"09/27","lengthInMeters":800},"runways":[{"magneticOrientation":92.02,"surface":"asphalt","name":"09/27","lengthInMeters":800}]},"vfrPoints":[]},{"latLng":{"lat":43.215817,"lng":2.308544},"aerodromeAltitude":434,"icaoCode":"LFMK","frequencies":{"afis":[],"atis":[{"frequency":"120.030","remarks":"Diffusion des paramètres de DEP et ARR/DEP and ARR parameters broadcasting TEL: (0)4.68.10.23.56"}],"autoinfo":[],"tower":[{"frequency":"134.500","remarks":null}],"ground":[]},"name":"CARCASSONNE SALVAZA","mapShortName":"CARCASSONNE","magneticVariation":1.22,"runways":{"mainRunway":{"magneticOrientation":96.27,"surface":"asphalt","name":"10/28","lengthInMeters":2050},"runways":[{"magneticOrientation":96.27,"surface":"asphalt","name":"10/28","lengthInMeters":2050},{"magneticOrientation":96.27,"surface":"grass","name":"10L/28R","lengthInMeters":800}]},"vfrPoints":[{"icaoCode":"LFMK","name":"WA","description":"Carcassonne Alzonne","latLng":{"lat":43.2542,"lng":2.1775}},{"icaoCode":"LFMK","name":"ES","description":"Carcassonne Capendu","latLng":{"lat":43.185,"lng":2.55611}},{"icaoCode":"LFMK","name":"NC","description":"Carcassonne Conques sur Orbiel","latLng":{"lat":43.2686,"lng":2.40056}},{"icaoCode":"LFMK","name":"SF","description":"Carcassonne Coufoullens","latLng":{"lat":43.1556,"lng":2.30583}},{"icaoCode":"LFMK","name":"S","description":"Carcassonne Limoux","latLng":{"lat":43.0544,"lng":2.21667}},{"icaoCode":"LFMK","name":"WP","description":"Carcassonne Prouilles","latLng":{"lat":43.1936,"lng":2.055}},{"icaoCode":"LFMK","name":"EN","description":"Carcassonne Rieux Minervois","latLng":{"lat":43.2822,"lng":2.58778}},{"icaoCode":"LFMK","name":"WM","description":"Carcassonne Sud Montreal","latLng":{"lat":43.1903,"lng":2.14194}},{"icaoCode":"LFMK","name":"W","description":"Carcassonne Villepinte","latLng":{"lat":43.2822,"lng":2.08639}}]},{"latLng":{"lat":43.436633,"lng":5.215119},"aerodromeAltitude":70,"icaoCode":"LFML","frequencies":{"afis":[],"atis":[{"frequency":"125.355","remarks":null}],"autoinfo":[],"tower":[{"frequency":"123.725","remarks":null},{"frequency":"133.100","remarks":null}],"ground":[{"frequency":"121.905","remarks":null}]},"name":"MARSEILLE PROVENCE","mapShortName":"M. PROVENCE","magneticVariation":1.93,"runways":{"mainRunway":{"magneticOrientation":134.47,"surface":"asphalt","name":"13L/31R","lengthInMeters":3440},"runways":[{"magneticOrientation":135.47,"surface":"asphalt","name":"13R/31L","lengthInMeters":2370},{"magneticOrientation":134.47,"surface":"asphalt","name":"13L/31R","lengthInMeters":3440}]},"vfrPoints":[{"icaoCode":"LFML","name":"SC","description":"Marseille 1 NM W Cap Croisette","latLng":{"lat":43.2106,"lng":5.30194}},{"icaoCode":"LFML","name":"EB","description":"Marseille Carref Est Pennes Mir","latLng":{"lat":43.4106,"lng":5.32472}},{"icaoCode":"LFML","name":"CB","description":"Marseille Ch. De Cabanne","latLng":{"lat":43.6269,"lng":5.40472}},{"icaoCode":"LFML","name":"EA","description":"Marseille Ech Sud Cabries","latLng":{"lat":43.4314,"lng":5.38444}},{"icaoCode":"LFML","name":"SA","description":"Marseille Est Ch les Martigues","latLng":{"lat":43.3742,"lng":5.18806}},{"icaoCode":"LFML","name":"SB","description":"Marseille Etang/Canal","latLng":{"lat":43.4075,"lng":5.18472}},{"icaoCode":"LFML","name":"NB","description":"Marseille Radar Vitrolles","latLng":{"lat":43.4714,"lng":5.24222}},{"icaoCode":"LFML","name":"LP","description":"Marseille Saint Cannat-La Pile","latLng":{"lat":43.6164,"lng":5.315}},{"icaoCode":"LFML","name":"SW","description":"Marseille Sud Carro (CTR Istres)","latLng":{"lat":43.3244,"lng":5.04167}},{"icaoCode":"LFML","name":"S","description":"Marseille Sud Carry Le Rouet","latLng":{"lat":43.3244,"lng":5.17222}},{"icaoCode":"LFML","name":"E","description":"Marseille Terril SW Gardanne","latLng":{"lat":43.44,"lng":5.45167}},{"icaoCode":"LFML","name":"NA","description":"Marseille Ventabren A8/D19","latLng":{"lat":43.555,"lng":5.28389}}]},{"latLng":{"lat":43.665406,"lng":7.214983},"aerodromeAltitude":12,"icaoCode":"LFMN","frequencies":{"afis":[],"atis":[{"frequency":"129.605","remarks":"Diffusion des paramètres de DEP et ARR (FR)"},{"frequency":"136.580","remarks":"Diffusion des paramètres de DEP et ARR (EN)"}],"autoinfo":[],"tower":[{"frequency":"118.700","remarks":"FREQ IFR et VFR en circuit d'aérodrome"},{"frequency":"122.380","remarks":"FREQ réservée aux VFR en transit SA-EA et hélicoptères"},{"frequency":"123.150","remarks":null}],"ground":[{"frequency":"121.705","remarks":"CTL ACFT au sol."}]},"name":"NICE COTE D'AZUR","mapShortName":"NICE","magneticVariation":2.39,"runways":{"mainRunway":{"magneticOrientation":44.95,"surface":"asphalt","name":"04R/22L","lengthInMeters":2963},"runways":[{"magneticOrientation":44.95,"surface":"asphalt","name":"04R/22L","lengthInMeters":2963},{"magneticOrientation":44.95,"surface":"asphalt","name":"04L/22R","lengthInMeters":2628}]},"vfrPoints":[{"icaoCode":"LFMN","name":"SB","description":"Nice 1 nm Sud Cap Gros","latLng":{"lat":43.5353,"lng":7.145}},{"icaoCode":"LFMN","name":"SA","description":"Nice 1 nm sud Ile Saint Honorat","latLng":{"lat":43.4889,"lng":7.04694}},{"icaoCode":"LFMN","name":"E","description":"Nice 1,5 NM Sud Port Menton","latLng":{"lat":43.75,"lng":7.51111}},{"icaoCode":"LFMN","name":"NA","description":"Nice Bge Nord Var","latLng":{"lat":43.75,"lng":7.18889}},{"icaoCode":"LFMN","name":"WA","description":"Nice Ch. De Cagnes","latLng":{"lat":43.6669,"lng":7.14556}},{"icaoCode":"LFMN","name":"TE","description":"Nice en Mer Pt TE","latLng":{"lat":43.6386,"lng":7.3025}},{"icaoCode":"LFMN","name":"TS","description":"Nice en Mer Pt TS","latLng":{"lat":43.5836,"lng":7.22}},{"icaoCode":"LFMN","name":"EW","description":"Nice Golf Sud Opio","latLng":{"lat":43.66,"lng":6.98}},{"icaoCode":"LFMN","name":"NB","description":"Nice Peage Saint Isidore","latLng":{"lat":43.7,"lng":7.18806}},{"icaoCode":"LFMN","name":"WN","description":"Nice Pt autoroute sur Var","latLng":{"lat":43.6683,"lng":7.19722}},{"icaoCode":"LFMN","name":"EC","description":"Nice Sud Musee Oceanogr.","latLng":{"lat":43.7014,"lng":7.42694}},{"icaoCode":"LFMN","name":"EA","description":"Nice Tr. Pte du Colombier","latLng":{"lat":43.6547,"lng":7.34556}},{"icaoCode":"LFMN","name":"PF","description":"Phare de la Fourmigue","latLng":{"lat":43.5394,"lng":7.67778}}]},{"latLng":{"lat":3.172778,"lng":-52.334444},"aerodromeAltitude":228,"icaoCode":"SOOC","frequencies":{"afis":[],"atis":[],"autoinfo":[{"frequency":"123.500","remarks":null}],"tower":[],"ground":[]},"name":"CAMOPI","mapShortName":"CAMOPI","magneticVariation":-18.67,"runways":{"mainRunway":{"magneticOrientation":87.57,"surface":"asphalt","name":"11/29","lengthInMeters":1000},"runways":[{"magneticOrientation":87.57,"surface":"asphalt","name":"11/29","lengthInMeters":1000}]},"vfrPoints":[]},{"latLng":{"lat":4.314722,"lng":-52.131667},"aerodromeAltitude":14,"icaoCode":"SOOR","frequencies":{"afis":[],"atis":[],"autoinfo":[{"frequency":"123.500","remarks":null}],"tower":[],"ground":[]},"name":"REGINA","mapShortName":"REGINA","magneticVariation":-18.55,"runways":{"mainRunway":{"magneticOrientation":39,"surface":"asphalt","name":"06/24","lengthInMeters":799},"runways":[{"magneticOrientation":39,"surface":"asphalt","name":"06/24","lengthInMeters":799}]},"vfrPoints":[]},{"latLng":{"lat":43.406389,"lng":1.989167},"aerodromeAltitude":1468,"icaoCode":"LFMG","frequencies":{"afis":[],"atis":[],"autoinfo":[{"frequency":"134.155","remarks":null}],"tower":[],"ground":[]},"name":"MONTAGNE NOIRE","mapShortName":"MONTAGNE NOIRE","magneticVariation":1.13,"runways":{"mainRunway":{"magneticOrientation":119.7,"surface":"asphalt","name":"12/30","lengthInMeters":500},"runways":[{"magneticOrientation":2.69,"surface":"asphalt","name":"18/36","lengthInMeters":275},{"magneticOrientation":119.7,"surface":"asphalt","name":"12/30","lengthInMeters":500},{"magneticOrientation":32.9,"surface":"asphalt","name":"03/21","lengthInMeters":380}]},"vfrPoints":[]},{"latLng":{"lat":45.53405,"lng":4.297311},"aerodromeAltitude":1325,"icaoCode":"LFMH","frequencies":{"afis":[],"atis":[{"frequency":"132.805","remarks":"TEL : 04 82 89 48 18"}],"autoinfo":[],"tower":[{"frequency":"119.250","remarks":null}],"ground":[]},"name":"SAINT ETIENNE LOIRE","mapShortName":"ST ETIENNE","magneticVariation":1.68,"runways":{"mainRunway":{"magneticOrientation":175,"surface":"asphalt","name":"17/35","lengthInMeters":2300},"runways":[{"magneticOrientation":175,"surface":"asphalt","name":"17/35","lengthInMeters":2300}]},"vfrPoints":[{"icaoCode":"LFMH","name":"W","description":"Saint Etienne Butte Saint Romain le Puy","latLng":{"lat":45.5575,"lng":4.12583}},{"icaoCode":"LFMH","name":"N","description":"Saint Etienne Hippodr. Feurs","latLng":{"lat":45.7394,"lng":4.22139}},{"icaoCode":"LFMH","name":"NA","description":"Saint Etienne Int. Montrond les Bains","latLng":{"lat":45.6442,"lng":4.23139}},{"icaoCode":"LFMH","name":"S","description":"Saint Etienne Intersec. Firminy","latLng":{"lat":45.3928,"lng":4.29167}},{"icaoCode":"LFMH","name":"SE","description":"Saint Etienne Saint Chamond Gare","latLng":{"lat":45.4731,"lng":4.51833}},{"icaoCode":"LFMH","name":"NE","description":"Saint Etienne Saint Symphorien Eglise","latLng":{"lat":45.6325,"lng":4.45389}}]},{"latLng":{"lat":43.522394,"lng":4.924236},"aerodromeAltitude":82,"icaoCode":"LFMI","frequencies":{"afis":[],"atis":[],"autoinfo":[],"tower":[{"frequency":"257.800","remarks":null},{"frequency":"123.600","remarks":null},{"frequency":"377.600","remarks":null}],"ground":[]},"name":"ISTRES LE TUBE","mapShortName":"ISTRES","magneticVariation":1.86,"runways":{"mainRunway":{"magneticOrientation":153,"surface":"asphalt","name":"15/33","lengthInMeters":3750},"runways":[{"magneticOrientation":153,"surface":"asphalt","name":"15/33","lengthInMeters":3750}]},"vfrPoints":[{"icaoCode":"LFMI","name":"SB","description":"Istres 0,8 nm Tr Sud Stes Maries DLM","latLng":{"lat":43.4397,"lng":4.42306}},{"icaoCode":"LFMI","name":"SC","description":"Istres 1 Km W Cap Croisette","latLng":{"lat":43.2106,"lng":5.30194}},{"icaoCode":"LFMI","name":"MLSC","description":"Istres 1 NM W Cap Croisette","latLng":{"lat":43.2106,"lng":5.30194}},{"icaoCode":"LFMI","name":"NE","description":"Istres Autodrome Miramas","latLng":{"lat":43.5792,"lng":4.97694}},{"icaoCode":"LFMI","name":"SW","description":"Istres Carro","latLng":{"lat":43.3244,"lng":5.04167}},{"icaoCode":"LFMI","name":"S","description":"Istres Carry Le Rouet","latLng":{"lat":43.3244,"lng":5.17222}},{"icaoCode":"LFMI","name":"N5","description":"Istres La Samatane carrefour","latLng":{"lat":43.6414,"lng":4.91667}},{"icaoCode":"LFMI","name":"W2","description":"Istres Martigues","latLng":{"lat":43.4072,"lng":5.0575}},{"icaoCode":"LFMI","name":"NW1","description":"Istres Mas Thibert","latLng":{"lat":43.5564,"lng":4.72056}},{"icaoCode":"LFMI","name":"SG","description":"Istres Ouest Salin de Giraud","latLng":{"lat":43.4144,"lng":4.68972}},{"icaoCode":"LFMI","name":"S3","description":"Istres Saint Mitre les Remparts","latLng":{"lat":43.4572,"lng":5.03222}},{"icaoCode":"LFMI","name":"NW","description":"Istres St Hyppolyte","latLng":{"lat":43.6458,"lng":4.74944}},{"icaoCode":"LFMI","name":"W3","description":"Istres Tr Est le Radeau","latLng":{"lat":43.4817,"lng":4.8025}},{"icaoCode":"LFMI","name":"N4","description":"Istres Tr le Gd Mas","latLng":{"lat":43.5861,"lng":4.88306}},{"icaoCode":"LFMI","name":"SD","description":"Istres Travers Sud Port St Louis du Rh","latLng":{"lat":43.3753,"lng":4.82972}},{"icaoCode":"LFMI","name":"S4","description":"Istres Vert Etg Levalduc","latLng":{"lat":43.4642,"lng":4.98583}}]},{"latLng":{"lat":43.384722,"lng":6.386944},"aerodromeAltitude":265,"icaoCode":"LFMC","frequencies":{"afis":[],"atis":[{"frequency":"128.650","remarks":null}],"autoinfo":[],"tower":[{"frequency":"123.000","remarks":null},{"frequency":"121.850","remarks":null},{"frequency":"374.525","remarks":"CTL MIL"},{"frequency":"121.500","remarks":"Urgence/Emergency"}],"ground":[]},"name":"LE LUC LE CANNET","mapShortName":"LE LUC","magneticVariation":2.2,"runways":{"mainRunway":{"magneticOrientation":130,"surface":"asphalt","name":"13/31","lengthInMeters":1399},"runways":[{"magneticOrientation":88,"surface":"asphalt","name":"09/27","lengthInMeters":799},{"magneticOrientation":130,"surface":"asphalt","name":"13/31","lengthInMeters":1399}]},"vfrPoints":[{"icaoCode":"LFMC","name":"NL","description":"Le Luc - Lorgues (D10-D48/Hte Tens.)","latLng":{"lat":43.4667,"lng":6.38833}},{"icaoCode":"LFMC","name":"NC","description":"Le Luc Centr. Electr. Entraygues","latLng":{"lat":43.4208,"lng":6.38333}},{"icaoCode":"LFMC","name":"UB","description":"Le Luc Decheterie (Sortie)","latLng":{"lat":43.4131,"lng":6.34889}},{"icaoCode":"LFMC","name":"DG","description":"Le Luc Draguignan (Pylone)","latLng":{"lat":43.5583,"lng":6.46139}},{"icaoCode":"LFMC","name":"SW","description":"Le Luc Gonfaron (Pont)","latLng":{"lat":43.3181,"lng":6.29861}},{"icaoCode":"LFMC","name":"SE","description":"Le Luc La Garde Freynet (Tour)","latLng":{"lat":43.3167,"lng":6.47222}},{"icaoCode":"LFMC","name":"VC","description":"Le Luc Le Cannet","latLng":{"lat":43.1917,"lng":6.28028}},{"icaoCode":"LFMC","name":"NE","description":"Le Luc Les Arcs (Pont Echangeur)","latLng":{"lat":43.45,"lng":6.4925}},{"icaoCode":"LFMC","name":"MY","description":"Le Luc Montmeyan (Tr N Lycee)","latLng":{"lat":43.6464,"lng":6.06361}},{"icaoCode":"LFMC","name":"NW","description":"Le Luc Pt d'Argens","latLng":{"lat":43.4667,"lng":6.3125}},{"icaoCode":"LFMC","name":"PL","description":"Le Luc Puyloubier (Chateau)","latLng":{"lat":43.5222,"lng":5.70306}},{"icaoCode":"LFMC","name":"BJ","description":"Le Luc Rd Pt Barjols","latLng":{"lat":43.5606,"lng":6.01028}},{"icaoCode":"LFMC","name":"SA","description":"Le Luc Sainte Anastasie (tr Sud Gymn.)","latLng":{"lat":43.3394,"lng":6.12083}},{"icaoCode":"LFMC","name":"TV","description":"Le Luc Tourves (ruine Ch.)","latLng":{"lat":43.4081,"lng":5.91861}}]},{"latLng":{"lat":43.546389,"lng":6.954167},"aerodromeAltitude":14,"icaoCode":"LFMD","frequencies":{"afis":[],"atis":[{"frequency":"130.480","remarks":null}],"autoinfo":[],"tower":[{"frequency":"120.780","remarks":null}],"ground":[{"frequency":"121.805","remarks":null}]},"name":"CANNES MANDELIEU","mapShortName":"CANNES","magneticVariation":2.33,"runways":{"mainRunway":{"magneticOrientation":172.65,"surface":"asphalt","name":"17/35","lengthInMeters":1540},"runways":[{"magneticOrientation":172.65,"surface":"asphalt","name":"17/35","lengthInMeters":1540},{"magneticOrientation":45.25,"surface":"asphalt","name":"04/22","lengthInMeters":760},{"magneticOrientation":172.67,"surface":"grass","name":"17L/35R","lengthInMeters":550}]},"vfrPoints":[{"icaoCode":"LFMD","name":"SB","description":"Cannes 1 Km Sud Cap Gros","latLng":{"lat":43.5353,"lng":7.145}},{"icaoCode":"LFMD","name":"SA","description":"Cannes 1 Km sud Ile Saint Honorat","latLng":{"lat":43.4889,"lng":7.04694}},{"icaoCode":"LFMD","name":"SV","description":"Cannes 1 Nm Ouest St Honorat (Hel)","latLng":{"lat":43.5075,"lng":7.03167}},{"icaoCode":"LFMD","name":"DR","description":"Cannes 1 nm S Ph. Pte Dramont","latLng":{"lat":43.3983,"lng":6.85556}},{"icaoCode":"LFMD","name":"SW","description":"Cannes 1 nm/SE Cap Roux","latLng":{"lat":43.4358,"lng":6.935}},{"icaoCode":"LFMD","name":"NA","description":"Cannes Bge Var Nord Ctr Comm","latLng":{"lat":43.75,"lng":7.18889}},{"icaoCode":"LFMD","name":"WA","description":"Cannes Chateau Cagnes S M","latLng":{"lat":43.6669,"lng":7.14556}},{"icaoCode":"LFMD","name":"HE","description":"Cannes Digue Est Jetee SW Gare Tr (Hel)","latLng":{"lat":43.5431,"lng":6.96833}},{"icaoCode":"LFMD","name":"TA","description":"Cannes Entre Sud Rocher R et HV","latLng":{"lat":43.5367,"lng":7.00167}},{"icaoCode":"LFMD","name":"EW","description":"Cannes Golf sud Opio","latLng":{"lat":43.66,"lng":6.98}},{"icaoCode":"LFMD","name":"HW","description":"Cannes Jetee Est Port Beal (Hel)","latLng":{"lat":43.5378,"lng":6.95861}},{"icaoCode":"LFMD","name":"HV","description":"Cannes Ouest Phare Berteguier (Hel)","latLng":{"lat":43.5256,"lng":7.01667}},{"icaoCode":"LFMD","name":"PF","description":"Cannes Phare Fourmigue","latLng":{"lat":43.5394,"lng":7.07778}},{"icaoCode":"LFMD","name":"WL","description":"Cannes Pte Sud Lac St Cassien","latLng":{"lat":43.5539,"lng":6.79389}},{"icaoCode":"LFMD","name":"LC","description":"Cannes Rte/A8","latLng":{"lat":43.5858,"lng":6.99778}},{"icaoCode":"LFMD","name":"WD","description":"Cannes Stade Planestel -  Sud A8","latLng":{"lat":43.5211,"lng":6.80667}},{"icaoCode":"LFMD","name":"N","description":"Cannes Stade Tignet","latLng":{"lat":43.6328,"lng":6.85306}},{"icaoCode":"LFMD","name":"TD","description":"Cannes W SV Sud TA","latLng":{"lat":43.5056,"lng":6.99444}}]},{"latLng":{"lat":5.485,"lng":-54.033611},"aerodromeAltitude":20,"icaoCode":"SOOM","frequencies":{"afis":[],"atis":[],"autoinfo":[{"frequency":"123.500","remarks":null}],"tower":[],"ground":[]},"name":"SAINT LAURENT DU MARONI","mapShortName":"SAINT LAURENT","magneticVariation":-17.95,"runways":{"mainRunway":{"magneticOrientation":24,"surface":"asphalt","name":"04/22","lengthInMeters":1000},"runways":[{"magneticOrientation":24,"surface":"asphalt","name":"04/22","lengthInMeters":1000}]},"vfrPoints":[]},{"latLng":{"lat":43.853056,"lng":4.414444},"aerodromeAltitude":197,"icaoCode":"LFME","frequencies":{"afis":[],"atis":[],"autoinfo":[{"frequency":"118.255","remarks":null}],"tower":[],"ground":[]},"name":"NIMES COURBESSAC","mapShortName":"N. COURBESSAC","magneticVariation":1.73,"runways":{"mainRunway":{"magneticOrientation":177.62,"surface":"grass","name":"18R/36L","lengthInMeters":940},"runways":[{"magneticOrientation":177.62,"surface":"grass","name":"18R/36L","lengthInMeters":940},{"magneticOrientation":177.63,"surface":"grass","name":"18L/36R","lengthInMeters":910}]},"vfrPoints":[{"icaoCode":"LFME","name":"AS","description":"Nimes C. Aimargues","latLng":{"lat":43.6819,"lng":4.21389}},{"icaoCode":"LFME","name":"AL","description":"Nimes C. Arles W Rhone","latLng":{"lat":43.6664,"lng":4.5875}},{"icaoCode":"LFME","name":"BC","description":"Nimes C. Beaucaire","latLng":{"lat":43.8303,"lng":4.63333}},{"icaoCode":"LFME","name":"CA","description":"Nimes C. Calvisson","latLng":{"lat":43.7794,"lng":4.19472}},{"icaoCode":"LFME","name":"SG","description":"Nimes C. Ecluse","latLng":{"lat":43.6442,"lng":4.43222}},{"icaoCode":"LFME","name":"P","description":"Nimes C. Peage","latLng":{"lat":43.6903,"lng":4.54444}},{"icaoCode":"LFME","name":"SN","description":"Nimes C. Sanilhac-Sagries","latLng":{"lat":43.9531,"lng":4.42389}}]},{"latLng":{"lat":43.608056,"lng":6.701667},"aerodromeAltitude":738,"icaoCode":"LFMF","frequencies":{"afis":[],"atis":[],"autoinfo":[{"frequency":"119.055","remarks":null}],"tower":[],"ground":[]},"name":"FAYENCE","mapShortName":"FAYENCE","magneticVariation":2.27,"runways":{"mainRunway":{"magneticOrientation":100.73,"surface":"grass","name":"10L/28R","lengthInMeters":785},"runways":[{"magneticOrientation":100.73,"surface":"grass","name":"10L/28R","lengthInMeters":785},{"magneticOrientation":100.7,"surface":"grass","name":"10R/28L","lengthInMeters":830},{"magneticOrientation":139.8,"surface":"grass","name":"32","lengthInMeters":650}]},"vfrPoints":[]},{"latLng":{"lat":41.926289,"lng":9.405303},"aerodromeAltitude":29,"icaoCode":"LFKS","frequencies":{"afis":[],"atis":[],"autoinfo":[],"tower":[{"frequency":"118.350","remarks":"Air-Sol VHF - Veillée / VHF Air-Ground - Monitored"},{"frequency":"122.100","remarks":"Roulage VHF - Veillée / VHF taxiing - Monitored"},{"frequency":"121.500","remarks":"Détresse - Veillée / Distress - Monitored"},{"frequency":"257.800","remarks":"Roulage UHF - Veillée / UHF taxiing - Monitored"},{"frequency":"243.000","remarks":"Détresse - Veillée / Distress - Monitored"},{"frequency":"301.200","remarks":"Air-Sol UHF - Veillée / UHF Air-Ground - Monitored"}],"ground":[]},"name":"SOLENZARA","mapShortName":"SOLENZARA","magneticVariation":2.81,"runways":{"mainRunway":{"magneticOrientation":178.56,"surface":"asphalt","name":"18/36","lengthInMeters":2627},"runways":[{"magneticOrientation":178.56,"surface":"asphalt","name":"18/36","lengthInMeters":2627}]},"vfrPoints":[{"icaoCode":"LFKS","name":"AS","description":"Solenzara Fautea","latLng":{"lat":41.7164,"lng":9.40194}},{"icaoCode":"LFKS","name":"AW","description":"Solenzara Ghisonaccia AD","latLng":{"lat":42.0356,"lng":9.40028}}]},{"latLng":{"lat":42.290278,"lng":9.1925},"aerodromeAltitude":1130,"icaoCode":"LFKT","frequencies":{"afis":[],"atis":[],"autoinfo":[{"frequency":"123.500","remarks":null}],"tower":[],"ground":[]},"name":"CORTE","mapShortName":"CORTE","magneticVariation":2.78,"runways":{"mainRunway":{"magneticOrientation":126,"surface":"asphalt","name":"12/30","lengthInMeters":950},"runways":[{"magneticOrientation":126,"surface":"asphalt","name":"12/30","lengthInMeters":950}]},"vfrPoints":[]},{"latLng":{"lat":45.375033,"lng":6.277814},"aerodromeAltitude":1399,"icaoCode":"LFKR","frequencies":{"afis":[],"atis":[],"autoinfo":[{"frequency":"123.500","remarks":null}],"tower":[],"ground":[]},"name":"SAINT REMY DE MAURIENNE","mapShortName":"ST-REMY","magneticVariation":2.18,"runways":{"mainRunway":{"magneticOrientation":158,"surface":"grass","name":"16/34","lengthInMeters":757},"runways":[{"magneticOrientation":158,"surface":"grass","name":"16/34","lengthInMeters":757}]},"vfrPoints":[]},{"latLng":{"lat":45.4075,"lng":6.5775},"aerodromeAltitude":5639,"icaoCode":"LFKX","frequencies":{"afis":[],"atis":[],"autoinfo":[{"frequency":"118.750","remarks":null}],"tower":[],"ground":[]},"name":"MERIBEL ROBERT MERLOZ","mapShortName":"MERIBEL","magneticVariation":2.25,"runways":{"mainRunway":{"magneticOrientation":154.85,"surface":"asphalt","name":"15/33","lengthInMeters":406},"runways":[{"magneticOrientation":154.85,"surface":"asphalt","name":"15/33","lengthInMeters":406}]},"vfrPoints":[{"icaoCode":"LFKX","name":"MOU","description":"Meribel Moutiers","latLng":{"lat":45.4833,"lng":6.53333}}]},{"latLng":{"lat":45.693889,"lng":5.691667},"aerodromeAltitude":739,"icaoCode":"LFKY","frequencies":{"afis":[],"atis":[],"autoinfo":[{"frequency":"123.500","remarks":null}],"tower":[],"ground":[]},"name":"BELLEY-PEYRIEU","mapShortName":"BELLEY","magneticVariation":2.04,"runways":{"mainRunway":{"magneticOrientation":4.57,"surface":"grass","name":"18/36","lengthInMeters":638},"runways":[{"magneticOrientation":4.57,"surface":"grass","name":"18/36","lengthInMeters":638}]},"vfrPoints":[]},{"latLng":{"lat":47.846328,"lng":3.496578},"aerodromeAltitude":523,"icaoCode":"LFLA","frequencies":{"afis":[{"frequency":"129.800","remarks":null}],"atis":[],"autoinfo":[],"tower":[],"ground":[]},"name":"AUXERRE BRANCHES","mapShortName":"AUXERRE","magneticVariation":1.4,"runways":{"mainRunway":{"magneticOrientation":5.48,"surface":"asphalt","name":"18/36","lengthInMeters":1650},"runways":[{"magneticOrientation":5.48,"surface":"asphalt","name":"18/36","lengthInMeters":1650}]},"vfrPoints":[]},{"latLng":{"lat":45.560556,"lng":5.975833},"aerodromeAltitude":973,"icaoCode":"LFLE","frequencies":{"afis":[],"atis":[],"autoinfo":[{"frequency":"118.400","remarks":null}],"tower":[],"ground":[]},"name":"CHAMBERY CHALLES LES EAUX","mapShortName":"CH. CHALLES","magneticVariation":2.11,"runways":{"mainRunway":{"magneticOrientation":144.06,"surface":"asphalt","name":"14/32","lengthInMeters":990},"runways":[{"magneticOrientation":143.99,"surface":"grass","name":"14L/32R","lengthInMeters":890},{"magneticOrientation":144.06,"surface":"asphalt","name":"14/32","lengthInMeters":990}]},"vfrPoints":[]},{"latLng":{"lat":47.060786,"lng":2.370083},"aerodromeAltitude":529,"icaoCode":"LFLD","frequencies":{"afis":[{"frequency":"119.600","remarks":"En l'absence AFIS, A/A en FR seulement."}],"atis":[],"autoinfo":[],"tower":[],"ground":[]},"name":"BOURGES","mapShortName":"BOURGES","magneticVariation":1.11,"runways":{"mainRunway":{"magneticOrientation":58.82,"surface":"asphalt","name":"06/24","lengthInMeters":1550},"runways":[{"magneticOrientation":58.82,"surface":"asphalt","name":"06/24","lengthInMeters":1550},{"magneticOrientation":58.83,"surface":"grass","name":"06R/24L","lengthInMeters":915}]},"vfrPoints":[]},{"latLng":{"lat":45.785972,"lng":3.16245},"aerodromeAltitude":1092,"icaoCode":"LFLC","frequencies":{"afis":[],"atis":[{"frequency":"136.405","remarks":"TEL 04 73 62 74 38"}],"autoinfo":[],"tower":[{"frequency":"118.625","remarks":null}],"ground":[{"frequency":"121.950","remarks":"Circulation au sol sauf RWY / Taxiing except on RWY"}]},"name":"CLERMONT FERRAND AUVERGNE","mapShortName":"CLERMONT","magneticVariation":1.38,"runways":{"mainRunway":{"magneticOrientation":81.97,"surface":"asphalt","name":"08/26","lengthInMeters":3013},"runways":[{"magneticOrientation":81.97,"surface":"asphalt","name":"08/26","lengthInMeters":3013},{"magneticOrientation":8,"surface":"grass","name":"01/19","lengthInMeters":645},{"magneticOrientation":81.95,"surface":"grass","name":"08L/26R","lengthInMeters":909}]},